"lat","lng","name","SchoolNameEng","district","schoolNet","SchoolAddressChi","StudentGenderChi","FinanceTypeChi","TelephoneNumber","id","layer","qualification","forms_submitDate","forms_submitDate_status","applicationDate","applicationDate_status","documentsExpected","interviewDate","interviewDate_status","interviewContent","interviewTips","updatedColumnName","updateDate","signature","region"
"22.2880441317786","114.139038920403","MoMo Café","KOWLOON TONG SCHOOL (PRIMARY SECTION)","中西區","/","西環西營盤干諾道西167號香港萬怡酒店","男女","酒店","B類餐廳","1","base","多國菜/素食/自助餐/酒店餐廳","","","11月24日 - 11月29日","往年慣例","","12月18日 - 12月20日","往年慣例","https://www.hk01.com/issue/828","https://www.hk01.com/issue/828","","","","香港島"
"22.2869744640535","114.143590629101","華麗餐廳 Terrace Cafe","KOWLOON TONG SCHOOL (PRIMARY SECTION)","中西區","/","西環西營盤皇后大道西239號華美達海景酒店3樓","男女","酒店","B類餐廳","2","base","西式/自助餐/酒店餐廳","","","11月24日 - 11月29日","往年慣例","","12月18日 - 12月20日","往年慣例","https://www.hk01.com/issue/828","https://www.hk01.com/issue/828","","","","香港島"
"22.2859721547428","114.134935152115","馬來一菜館 Café Malacca","KOWLOON TONG SCHOOL (PRIMARY SECTION)","中西區","/","西環石塘咀皇后大道西508號香港JEN酒店2樓","男女","酒店","B類餐廳","3","base","新加坡菜/馬來西亞菜/酒店餐廳","","","11月24日 - 11月29日","往年慣例","","12月18日 - 12月20日","往年慣例","https://www.hk01.com/issue/828","https://www.hk01.com/issue/828","","","","香港島"
"22.2859296067027","114.13498878479","大堂酒廊 Lobby Bar","KOWLOON TONG SCHOOL (PRIMARY SECTION)","中西區","/","西環石塘咀皇后大道西508號香港今旅酒店大堂","男女","酒店","B類餐廳","4","base","西式/酒店餐廳","","","11月24日 - 11月29日","往年慣例","","12月18日 - 12月20日","往年慣例","https://www.hk01.com/issue/828","https://www.hk01.com/issue/828","","","","香港島"
"22.300882","114.173857","FINDS","KOWLOON TONG SCHOOL (PRIMARY SECTION)","油尖區","/","尖沙咀金巴利道39號帝樂文娜公館1樓","男女","酒店","D類餐廳","5","base","西式/海鮮/無肉餐單/酒吧/酒店餐廳","","","11月24日 - 11月29日","往年慣例","","12月18日 - 12月20日","往年慣例","https://www.hk01.com/issue/828","https://www.hk01.com/issue/828","","","","九龍"
"22.300953","114.17388","Dada Bar + Lounge","KOWLOON TONG SCHOOL (PRIMARY SECTION)","油尖區","/","尖沙咀金巴利道39號帝樂文娜公館2樓","男女","酒店","D類餐廳","6","base","西式/酒吧/酒店餐廳","","","11月24日 - 11月29日","往年慣例","","12月18日 - 12月20日","往年慣例","https://www.hk01.com/issue/828","https://www.hk01.com/issue/828","","","","九龍"
"22.2850809","114.1514305","霜瀛 Shimoumi Sushi","KOWLOON TONG SCHOOL (PRIMARY SECTION)","中西區","/","上環蘇杭街57號香港嘉賦酒店2樓","男女","酒店","B類餐廳","7","base","日本菜/壽司/刺身/廚師發辦/酒店餐廳/居酒屋","","","11月24日 - 11月29日","往年慣例","","12月18日 - 12月20日","往年慣例","https://www.hk01.com/issue/828","https://www.hk01.com/issue/828","","","","香港島"
"22.2852795","114.150757","Moon Thai","KOWLOON TONG SCHOOL (PRIMARY SECTION)","中西區","/","上環蘇杭街83號香港蘇豪智選假日酒店2樓","男女","酒店","B類餐廳","8","base","泰國菜/酒店餐廳","","","11月24日 - 11月29日","往年慣例","","12月18日 - 12月20日","往年慣例","https://www.hk01.com/issue/828","https://www.hk01.com/issue/828","","","","香港島"
"22.2846108","114.1505657","Te Quiero Mucho","KOWLOON TONG SCHOOL (PRIMARY SECTION)","中西區","/","上環皇后大道中286號香港奧公館酒店地下及1樓","男女","酒店","B類餐廳","9","base","墨西哥菜/沙律/酒吧/酒店餐廳","","","11月24日 - 11月29日","往年慣例","","12月18日 - 12月20日","往年慣例","https://www.hk01.com/issue/828","https://www.hk01.com/issue/828","","","","香港島"
"22.287697","114.147558","Panda & Son","KOWLOON TONG SCHOOL (PRIMARY SECTION)","中西區","/","上環德輔道西28號宜必思香港中上環酒店地舖","男女","酒店","C類餐廳","10","base","意大利菜/多國菜/薄餅/酒店餐廳","","","11月24日 - 11月29日","往年慣例","","12月18日 - 12月20日","往年慣例","https://www.hk01.com/issue/828","https://www.hk01.com/issue/828","","","","香港島"
"22.2877023688605","114.147550125795","LE BAR","KOWLOON TONG SCHOOL (PRIMARY SECTION)","中西區","/","上環德輔道西28號宜必思香港中上環酒店5樓","男女","酒店","B類餐廳","11","base","多國菜/酒吧/酒店餐廳","","","11月24日 - 11月29日","往年慣例","","12月18日 - 12月20日","往年慣例","https://www.hk01.com/issue/828","https://www.hk01.com/issue/828","","","","香港島"
"22.2849802","114.1514151","淼屋 Myouya Izakaya","KOWLOON TONG SCHOOL (PRIMARY SECTION)","中西區","/","上環蘇杭街57號Akvo酒店1樓","男女","酒店","B類餐廳","12","base","日本菜/烏冬/串燒/酒店餐廳/居酒屋","","","11月24日 - 11月29日","往年慣例","","12月18日 - 12月20日","往年慣例","https://www.hk01.com/issue/828","https://www.hk01.com/issue/828","","","","香港島"
"22.2876811206603","114.147590565407","TASTE","KOWLOON TONG SCHOOL (PRIMARY SECTION)","中西區","/","上環德輔道西28號宜必思香港中上環酒店6樓","男女","酒店","B類餐廳","13","base","西式/酒店餐廳","","","11月24日 - 11月29日","往年慣例","","12月18日 - 12月20日","往年慣例","https://www.hk01.com/issue/828","https://www.hk01.com/issue/828","","","","香港島"
"22.2804988","114.155431","Desire Restaurant and Bar","KOWLOON TONG SCHOOL (PRIMARY SECTION)","中西區","/","中環蘭桂坊15-16號協興大廈6樓","男女","酒店","B類餐廳","14","base","日本菜/西式/酒吧","","","11月24日 - 11月29日","往年慣例","","12月18日 - 12月20日","往年慣例","https://www.hk01.com/issue/828","https://www.hk01.com/issue/828","","","","香港島"
"22.2818866052878","114.159447848797","快船廊 Clipper Lounge","KOWLOON TONG SCHOOL (PRIMARY SECTION)","中西區","/","中環干諾道中5號香港文華東方酒店閣樓","男女","酒店","B類餐廳","15","base","西式/自助餐/酒店餐廳","","","11月24日 - 11月29日","往年慣例","","12月18日 - 12月20日","往年慣例","https://www.hk01.com/issue/828","https://www.hk01.com/issue/828","","","","香港島"
"22.280588","114.157836","Amber","KOWLOON TONG SCHOOL (PRIMARY SECTION)","中西區","/","中環皇后大道中15號置地文華東方酒店7樓","男女","酒店","B類餐廳","16","base","西式/酒/無肉餐單/Fine/Dining/酒店餐廳","","","11月24日 - 11月29日","往年慣例","","12月18日 - 12月20日","往年慣例","https://www.hk01.com/issue/828","https://www.hk01.com/issue/828","","","","香港島"
"22.2868032171843","114.156612753868","Caprice","KOWLOON TONG SCHOOL (PRIMARY SECTION)","中西區","/","中環金融街8號香港四季酒店6樓","男女","酒店","B類餐廳","17","base","法國菜/Fine/Dining/酒店餐廳","","","11月24日 - 11月29日","往年慣例","","12月18日 - 12月20日","往年慣例","https://www.hk01.com/issue/828","https://www.hk01.com/issue/828","","","","香港島"
"22.2780867226834","114.160102307796","Popinjays","KOWLOON TONG SCHOOL (PRIMARY SECTION)","中西區","/","中環紅棉路22號The Murray, Hong Kong酒店26樓","男女","酒店","D類餐廳","18","base","西式/酒吧/酒店餐廳/無翅餐廳","","","11月24日 - 11月29日","往年慣例","","12月18日 - 12月20日","往年慣例","https://www.hk01.com/issue/828","https://www.hk01.com/issue/828","","","","香港島"
"22.2780861021846","114.160102307796","Garden Lounge","KOWLOON TONG SCHOOL (PRIMARY SECTION)","中西區","/","中環紅棉路22號The Murray, Hong Kong酒店花園樓層","男女","酒店","D類餐廳","19","base","多國菜/酒/海鮮/甜品/糖水/咖喱/酒店餐廳/無翅餐廳","","","11月24日 - 11月29日","往年慣例","","12月18日 - 12月20日","往年慣例","https://www.hk01.com/issue/828","https://www.hk01.com/issue/828","","","","香港島"
"22.2818841233603","114.159447848797","Cafe Causette","KOWLOON TONG SCHOOL (PRIMARY SECTION)","中西區","/","中環干諾道中5號香港文華東方酒店閣樓","男女","酒店","B類餐廳","20","base","西式/酒店餐廳","","","11月24日 - 11月29日","往年慣例","","12月18日 - 12月20日","往年慣例","https://www.hk01.com/issue/828","https://www.hk01.com/issue/828","","","","香港島"
"22.2780867226834","114.160102307796","The Tai Pan","KOWLOON TONG SCHOOL (PRIMARY SECTION)","中西區","/","中環紅棉路22號The Murray, Hong Kong酒店花園樓層","男女","酒店","D類餐廳","21","base","西式/酒/大閘蟹/自助餐/扒房/酒店餐廳/動物友善餐廳/無翅餐廳","","","11月24日 - 11月29日","往年慣例","","12月18日 - 12月20日","往年慣例","https://www.hk01.com/issue/828","https://www.hk01.com/issue/828","","","","香港島"
"22.2864877","114.1569068","龍景軒 Lung King Heen","KOWLOON TONG SCHOOL (PRIMARY SECTION)","中西區","/","中環金融街8號香港四季酒店4樓","男女","酒店","B類餐廳","22","base","粵菜/(廣東)/Fine/Dining/中菜館/酒店餐廳","","","11月24日 - 11月29日","往年慣例","","12月18日 - 12月20日","往年慣例","https://www.hk01.com/issue/828","https://www.hk01.com/issue/828","","","","香港島"
"22.2818890872152","114.159450531006","文華餅店 The Mandarin Cake Shop","KOWLOON TONG SCHOOL (PRIMARY SECTION)","中西區","/","中環干諾道中5號香港文華東方酒店閣樓","男女","酒店","B類餐廳","23","base","西式/麵包店/酒店餐廳","","","11月24日 - 11月29日","往年慣例","","12月18日 - 12月20日","往年慣例","https://www.hk01.com/issue/828","https://www.hk01.com/issue/828","","","","香港島"
"22.2864877","114.1569068","The Lounge","KOWLOON TONG SCHOOL (PRIMARY SECTION)","中西區","/","中環金融街8號香港四季酒店大堂","男女","酒店","C類餐廳","24","base","西式/酒吧/酒店餐廳","","","11月24日 - 11月29日","往年慣例","","12月18日 - 12月20日","往年慣例","https://www.hk01.com/issue/828","https://www.hk01.com/issue/828","","","","香港島"
"22.2827861","114.1553729","The Envoy","KOWLOON TONG SCHOOL (PRIMARY SECTION)","中西區","/","中環皇后大道中74號中環石板街酒店3樓","男女","酒店","D類餐廳","25","base","西式/多國菜/酒/酒吧/酒店餐廳/主題餐廳","","","11月24日 - 11月29日","往年慣例","","12月18日 - 12月20日","往年慣例","https://www.hk01.com/issue/828","https://www.hk01.com/issue/828","","","","香港島"
"22.2818866052878","114.159453213215","文華扒房及酒吧 Mandarin Grill + Bar","KOWLOON TONG SCHOOL (PRIMARY SECTION)","中西區","/","中環干諾道中5號香港文華東方酒店1樓","男女","酒店","B類餐廳","26","base","西式/Fine/Dining/扒房/酒店餐廳","","","11月24日 - 11月29日","往年慣例","","12月18日 - 12月20日","往年慣例","https://www.hk01.com/issue/828","https://www.hk01.com/issue/828","","","","香港島"
"22.2819935","114.1592418","文華廳 Man Wah","KOWLOON TONG SCHOOL (PRIMARY SECTION)","中西區","/","中環干諾道中5號香港文華東方酒店25樓","男女","酒店","B類餐廳","27","base","粵菜/(廣東)/點心/Fine/Dining/中菜館/酒樓/酒店餐廳","","","11月24日 - 11月29日","往年慣例","","12月18日 - 12月20日","往年慣例","https://www.hk01.com/issue/828","https://www.hk01.com/issue/828","","","","香港島"
"22.280545","114.157903","SOMM","KOWLOON TONG SCHOOL (PRIMARY SECTION)","中西區","/","中環皇后大道中15號置地文華東方酒店7樓","男女","酒店","B類餐廳","28","base","多國菜/酒/酒店餐廳","","","11月24日 - 11月29日","往年慣例","","12月18日 - 12月20日","往年慣例","https://www.hk01.com/issue/828","https://www.hk01.com/issue/828","","","","香港島"
"22.2802379","114.154595","VEDA","KOWLOON TONG SCHOOL (PRIMARY SECTION)","中西區","/","中環亞畢諾道 2號","男女","酒店","B類餐廳","29","base","多國菜/酒/素食/無肉餐單/果汁/沙律/酒店餐廳","","","11月24日 - 11月29日","往年慣例","","12月18日 - 12月20日","往年慣例","https://www.hk01.com/issue/828","https://www.hk01.com/issue/828","","","","香港島"
"22.2827861","114.1553729","Gradini意大利餐廳 Gradini Ristorante E Bar Italiano","KOWLOON TONG SCHOOL (PRIMARY SECTION)","中西區","/","中環皇后大道中74號中環∙石板街酒店大堂","男女","酒店","D類餐廳","30","base","意大利菜/海鮮/酒店餐廳/咪嘥嘢食店","","","11月24日 - 11月29日","往年慣例","","12月18日 - 12月20日","往年慣例","https://www.hk01.com/issue/828","https://www.hk01.com/issue/828","","","","香港島"
"22.286655","114.156618","鮨．齋藤 Sushi Saito","KOWLOON TONG SCHOOL (PRIMARY SECTION)","中西區","/","中環金融街8號香港四季酒店45樓部份A號舖","男女","酒店","B類餐廳","31","base","日本菜/壽司/刺身/Fine/Dining/廚師發辦/酒店餐廳","","","11月24日 - 11月29日","往年慣例","","12月18日 - 12月20日","往年慣例","https://www.hk01.com/issue/828","https://www.hk01.com/issue/828","","","","香港島"
"22.2861634","114.157502","四季菊日本餐廳 Shikigiku Japanese Restaurant","KOWLOON TONG SCHOOL (PRIMARY SECTION)","中西區","/","中環金融街8號國際金融中心商場4樓","男女","酒店","D類餐廳","32","base","日本菜/壽司/刺身/酒店餐廳","","","11月24日 - 11月29日","往年慣例","","12月18日 - 12月20日","往年慣例","https://www.hk01.com/issue/828","https://www.hk01.com/issue/828","","","","香港島"
"22.2812388207143","114.157460331917","MO Bar","KOWLOON TONG SCHOOL (PRIMARY SECTION)","中西區","/","中環皇后大道中15號置地文華東方酒店大堂","男女","酒店","C類餐廳","33","base","多國菜/酒/酒吧/酒店餐廳","","","11月24日 - 11月29日","往年慣例","","12月18日 - 12月20日","往年慣例","https://www.hk01.com/issue/828","https://www.hk01.com/issue/828","","","","香港島"
"22.286655","114.156618","Tempura Uchitsu","KOWLOON TONG SCHOOL (PRIMARY SECTION)","中西區","/","中環金融街8號香港四季酒店45樓","男女","酒店","B類餐廳","34","base","日本菜/Fine/Dining/廚師發辦/酒店餐廳","","","11月24日 - 11月29日","往年慣例","","12月18日 - 12月20日","往年慣例","https://www.hk01.com/issue/828","https://www.hk01.com/issue/828","","","","香港島"
"22.2780867226834","114.160102307796","Murray Lane","KOWLOON TONG SCHOOL (PRIMARY SECTION)","中西區","/","中環紅棉路22號The Murray, Hong Kong 酒店平台樓層","男女","酒店","D類餐廳","35","base","西式/酒/海鮮/甜品/糖水/咖喱/漢堡包/Fine/Dining/扒房/咖啡店/酒吧/酒店餐廳/無翅餐廳","","","11月24日 - 11月29日","往年慣例","","12月18日 - 12月20日","往年慣例","https://www.hk01.com/issue/828","https://www.hk01.com/issue/828","","","","香港島"
"22.280545","114.157903","Please Don't Tell","KOWLOON TONG SCHOOL (PRIMARY SECTION)","中西區","/","中環皇后大道中15號置地文華東方酒店大堂","男女","酒店","B類餐廳","36","base","西式/酒吧/酒店餐廳","","","11月24日 - 11月29日","往年慣例","","12月18日 - 12月20日","往年慣例","https://www.hk01.com/issue/828","https://www.hk01.com/issue/828","","","","香港島"
"22.2821206","114.1593558","千日里 The Chinnery","KOWLOON TONG SCHOOL (PRIMARY SECTION)","中西區","/","中環干諾道中5號香港文華東方酒店1樓","男女","酒店","B類餐廳","37","base","西式/酒吧/酒店餐廳","","","11月24日 - 11月29日","往年慣例","","12月18日 - 12月20日","往年慣例","https://www.hk01.com/issue/828","https://www.hk01.com/issue/828","","","","香港島"
"22.278086","114.160102","Cotton Tree Terrace","KOWLOON TONG SCHOOL (PRIMARY SECTION)","中西區","/","中環紅棉路22號香港美利酒店酒店花園樓層","男女","酒店","D類餐廳","38","base","多國菜/甜品/糖水/自助餐/酒店餐廳/動物友善餐廳","","","11月24日 - 11月29日","往年慣例","","12月18日 - 12月20日","往年慣例","https://www.hk01.com/issue/828","https://www.hk01.com/issue/828","","","","香港島"
"22.2868280355842","114.156532287598","四季大禮堂 Four Seasons Grand Ballroom","KOWLOON TONG SCHOOL (PRIMARY SECTION)","中西區","/","中環金融街8號香港四季酒店2樓","男女","酒店","B類餐廳","39","base","港式/酒店餐廳","","","11月24日 - 11月29日","往年慣例","","12月18日 - 12月20日","往年慣例","https://www.hk01.com/issue/828","https://www.hk01.com/issue/828","","","","香港島"
"22.281906","114.159393","庫克廳 The Krug Room","KOWLOON TONG SCHOOL (PRIMARY SECTION)","中西區","/","中環干諾道中5號香港文華東方酒店1樓","男女","酒店","B類餐廳","40","base","西式/Fine/Dining/酒店餐廳","","","11月24日 - 11月29日","往年慣例","","12月18日 - 12月20日","往年慣例","https://www.hk01.com/issue/828","https://www.hk01.com/issue/828","","","","香港島"
"22.2818915691427","114.159447848797","船長吧 Captain's Bar","KOWLOON TONG SCHOOL (PRIMARY SECTION)","中西區","/","中環干諾道中5號香港文華東方酒店地下","男女","酒店","B類餐廳","41","base","西式/酒吧/酒店餐廳","","","11月24日 - 11月29日","往年慣例","","12月18日 - 12月20日","往年慣例","https://www.hk01.com/issue/828","https://www.hk01.com/issue/828","","","","香港島"
"22.2868230719045","114.156612753868","Pool Terrace","KOWLOON TONG SCHOOL (PRIMARY SECTION)","中西區","/","中環金融街8號香港四季酒店6樓","男女","酒店","B類餐廳","42","base","西式/西餐廳/酒店餐廳/露天茶座","","","11月24日 - 11月29日","往年慣例","","12月18日 - 12月20日","往年慣例","https://www.hk01.com/issue/828","https://www.hk01.com/issue/828","","","","香港島"
"22.281906","114.159393","文華閣 The Mandarin Club","KOWLOON TONG SCHOOL (PRIMARY SECTION)","中西區","/","中環干諾道中5號香港文華東方酒店32樓","男女","酒店","B類餐廳","43","base","多國菜/酒店餐廳","","","11月24日 - 11月29日","往年慣例","","12月18日 - 12月20日","往年慣例","https://www.hk01.com/issue/828","https://www.hk01.com/issue/828","","","","香港島"
"22.2818890872152","114.159445166588","康樂廳 The Connaught Room","KOWLOON TONG SCHOOL (PRIMARY SECTION)","中西區","/","中環干諾道中5號香港文華東方酒店1樓","男女","酒店","B類餐廳","44","base","港式/酒店餐廳","","","11月24日 - 11月29日","往年慣例","","12月18日 - 12月20日","往年慣例","https://www.hk01.com/issue/828","https://www.hk01.com/issue/828","","","","香港島"
"22.2780929","114.1600524","Niccolo Room","KOWLOON TONG SCHOOL (PRIMARY SECTION)","中西區","/","中環紅棉路22號The Murray, Hong Kong酒店25樓","男女","酒店","D類餐廳","45","base","西式/甜品/糖水/西式糕點//酒店餐廳","","","11月24日 - 11月29日","往年慣例","","12月18日 - 12月20日","往年慣例","https://www.hk01.com/issue/828","https://www.hk01.com/issue/828","","","","香港島"
"22.292715","114.1996863","The Farmhouse 咖啡廳","KOWLOON TONG SCHOOL (PRIMARY SECTION)","東區","/","北角北角邨里1號香港維港凱悅尚萃酒店西座2樓","男女","酒店","C類餐廳","46","base","多國菜/自助餐/酒店餐廳","","","11月24日 - 11月29日","往年慣例","","12月18日 - 12月20日","往年慣例","https://www.hk01.com/issue/828","https://www.hk01.com/issue/828","","","","香港島"
"22.292722","114.199378","Cruise Restaurant & Bar","KOWLOON TONG SCHOOL (PRIMARY SECTION)","東區","/","北角北角邨里1號香港維港凱悅尚萃酒店西座23樓","男女","酒店","未有相關資料","47","base","多國菜/海鮮/酒吧/酒店餐廳","","","11月24日 - 11月29日","往年慣例","","12月18日 - 12月20日","往年慣例","https://www.hk01.com/issue/828","https://www.hk01.com/issue/828","","","","香港島"
"22.2889903","114.1918463","Le 188° 餐廳及酒廊 Le 188° Restaurant & Lounge","KOWLOON TONG SCHOOL (PRIMARY SECTION)","東區","/","北角油街23號港島海逸君綽酒店41樓","男女","酒店","B類餐廳","48","base","西式/多國菜/酒吧/酒店餐廳","","","11月24日 - 11月29日","往年慣例","","12月18日 - 12月20日","往年慣例","https://www.hk01.com/issue/828","https://www.hk01.com/issue/828","","","","香港島"
"22.2891559818981","114.191819429398","Harbour Grand Café","KOWLOON TONG SCHOOL (PRIMARY SECTION)","東區","/","北角油街23號港島海逸君綽酒店3樓","男女","酒店","B類餐廳","49","base","多國菜/自助餐/清真認證食品/酒店餐廳","","","11月24日 - 11月29日","往年慣例","","12月18日 - 12月20日","往年慣例","https://www.hk01.com/issue/828","https://www.hk01.com/issue/828","","","","香港島"
"22.2895732","114.1930948","歷山餐廳 Cafe A","KOWLOON TONG SCHOOL (PRIMARY SECTION)","東區","/","北角城市花園道32號歷山酒店大堂樓層","男女","酒店","D類餐廳","50","base","多國菜/自助餐/酒店餐廳","","","11月24日 - 11月29日","往年慣例","","12月18日 - 12月20日","往年慣例","https://www.hk01.com/issue/828","https://www.hk01.com/issue/828","","","","香港島"
"22.2891535000997","114.191819429398","君綽軒 Kwan Cheuk Heen","KOWLOON TONG SCHOOL (PRIMARY SECTION)","東區","/","北角油街23號港島海逸君綽酒店5樓","男女","酒店","B類餐廳","51","base","粵菜/(廣東)/中菜館/酒店餐廳","","","11月24日 - 11月29日","往年慣例","","12月18日 - 12月20日","往年慣例","https://www.hk01.com/issue/828","https://www.hk01.com/issue/828","","","","香港島"
"22.2917022838953","114.208631515503","綠怡咖啡廳 Greens Cafe","KOWLOON TONG SCHOOL (PRIMARY SECTION)","東區","/","北角英皇道665號北角海逸酒店2樓","男女","酒店","B類餐廳","52","base","多國菜/自助餐/酒店餐廳","","","11月24日 - 11月29日","往年慣例","","12月18日 - 12月20日","往年慣例","https://www.hk01.com/issue/828","https://www.hk01.com/issue/828","","","","香港島"
"22.2922581955107","114.200732409954","The Restaurant","KOWLOON TONG SCHOOL (PRIMARY SECTION)","東區","/","北角渣華道136-142號宜必思世紀軒2樓","男女","酒店","B類餐廳","53","base","多國菜/酒店餐廳","","","11月24日 - 11月29日","往年慣例","","12月18日 - 12月20日","往年慣例","https://www.hk01.com/issue/828","https://www.hk01.com/issue/828","","","","香港島"
"22.2927025461178","114.199464704403","文華軒 The Mandarin House","KOWLOON TONG SCHOOL (PRIMARY SECTION)","東區","/","北角北角邨里1號北角匯2樓203號舖","男女","酒店","D類餐廳","54","base","粵菜/(廣東)/酒店餐廳","","","11月24日 - 11月29日","往年慣例","","12月18日 - 12月20日","往年慣例","https://www.hk01.com/issue/828","https://www.hk01.com/issue/828","","","","香港島"
"22.288958","114.191889","「和」日本料理 Nagomi","KOWLOON TONG SCHOOL (PRIMARY SECTION)","東區","/","北角油街23號港島海逸君綽酒店地下","男女","酒店","B類餐廳","55","base","日本菜/酒店餐廳","","","11月24日 - 11月29日","往年慣例","","12月18日 - 12月20日","往年慣例","https://www.hk01.com/issue/828","https://www.hk01.com/issue/828","","","","香港島"
"22.291713","114.208157","逸龍軒 YAT LUNG HEEN","KOWLOON TONG SCHOOL (PRIMARY SECTION)","東區","/","北角英皇道665號北角海逸酒店3樓","男女","酒店","C類餐廳","56","base","粵菜/(廣東)/海鮮/燒臘/點心/中菜館/酒店餐廳","","","11月24日 - 11月29日","往年慣例","","12月18日 - 12月20日","往年慣例","https://www.hk01.com/issue/828","https://www.hk01.com/issue/828","","","","香港島"
"22.2889019851091","114.191883802414","大堂酒吧 Lobby Lounge","KOWLOON TONG SCHOOL (PRIMARY SECTION)","東區","/","北角油街23號港島海逸君綽酒店地下","男女","酒店","B類餐廳","57","base","西式/酒/酒吧/酒店餐廳","","","11月24日 - 11月29日","往年慣例","","12月18日 - 12月20日","往年慣例","https://www.hk01.com/issue/828","https://www.hk01.com/issue/828","","","","香港島"
"22.2917022838953","114.208636879921","Java Mama 美食坊 Java Mama Deli Corner","KOWLOON TONG SCHOOL (PRIMARY SECTION)","東區","/","北角英皇道665號北角海逸酒店1樓","男女","酒店","B類餐廳","58","base","西式/三文治/咖啡店/酒店餐廳","","","11月24日 - 11月29日","往年慣例","","12月18日 - 12月20日","往年慣例","https://www.hk01.com/issue/828","https://www.hk01.com/issue/828","","","","香港島"
"22.291011","114.1974065","一流餐廳 First Cafe","KOWLOON TONG SCHOOL (PRIMARY SECTION)","東區","/","北角春秧街88號華美達盛景酒店1樓","男女","酒店","B類餐廳","59","base","西式/酒店餐廳","","","11月24日 - 11月29日","往年慣例","","12月18日 - 12月20日","往年慣例","https://www.hk01.com/issue/828","https://www.hk01.com/issue/828","","","","香港島"
"22.2786004946891","114.15334045887","朗悅軒 Terrace Room","KOWLOON TONG SCHOOL (PRIMARY SECTION)","中西區","/","半山羅便臣道4號宏基國際賓館1樓","男女","酒店","B類餐廳","60","base","西式/酒店餐廳","","","11月24日 - 11月29日","往年慣例","","12月18日 - 12月20日","往年慣例","https://www.hk01.com/issue/828","https://www.hk01.com/issue/828","","","","香港島"
"22.2763443513927","114.155711531639","特韵食坊 The One Restaurant","KOWLOON TONG SCHOOL (PRIMARY SECTION)","中西區","/","半山麥當勞道1號","男女","酒店","B類餐廳","61","base","多國菜/酒店餐廳","","","11月24日 - 11月29日","往年慣例","","12月18日 - 12月20日","往年慣例","https://www.hk01.com/issue/828","https://www.hk01.com/issue/828","","","","香港島"
"22.2776275528685","114.166308939457","The Lounge (香港JW萬豪酒店) The Lounge (JW Marriott Hotel Hong Kong )","KOWLOON TONG SCHOOL (PRIMARY SECTION)","中西區","/","金鐘金鐘道88號太古廣場香港JW萬豪酒店大堂","男女","酒店","B類餐廳","62","base","西式/自助餐/酒吧/酒店餐廳/無翅餐廳","","","11月24日 - 11月29日","往年慣例","","12月18日 - 12月20日","往年慣例","https://www.hk01.com/issue/828","https://www.hk01.com/issue/828","","","","香港島"
"22.277509","114.166341","JW咖啡室 JW Cafe","KOWLOON TONG SCHOOL (PRIMARY SECTION)","中西區","/","金鐘金鐘道88號太古廣場香港JW萬豪酒店5樓","男女","酒店","B類餐廳","63","base","多國菜/自助餐/酒店餐廳/無翅餐廳","","","11月24日 - 11月29日","往年慣例","","12月18日 - 12月20日","往年慣例","https://www.hk01.com/issue/828","https://www.hk01.com/issue/828","","","","香港島"
"22.2773632","114.1644981","珀翠餐廳 Restaurant Petrus","KOWLOON TONG SCHOOL (PRIMARY SECTION)","中西區","/","金鐘金鐘道88號太古廣場二座港島香格里拉酒店56樓","男女","酒店","D類餐廳","64","base","法國菜/Fine/Dining/酒店餐廳","","","11月24日 - 11月29日","往年慣例","","12月18日 - 12月20日","往年慣例","https://www.hk01.com/issue/828","https://www.hk01.com/issue/828","","","","香港島"
"22.2769667","114.1643238","cafe TOO","KOWLOON TONG SCHOOL (PRIMARY SECTION)","中西區","/","金鐘金鐘道88號太古廣場二座港島香格里拉酒店7樓","男女","酒店","C類餐廳","65","base","西式/自助餐/酒店餐廳","","","11月24日 - 11月29日","往年慣例","","12月18日 - 12月20日","往年慣例","https://www.hk01.com/issue/828","https://www.hk01.com/issue/828","","","","香港島"
"22.277509","114.166341","萬豪金殿 Man Ho Chinese Restaurant","KOWLOON TONG SCHOOL (PRIMARY SECTION)","中西區","/","金鐘金鐘道88號太古廣場香港JW萬豪酒店3樓","男女","酒店","B類餐廳","66","base","粵菜/(廣東)/酒店餐廳/無翅餐廳","","","11月24日 - 11月29日","往年慣例","","12月18日 - 12月20日","往年慣例","https://www.hk01.com/issue/828","https://www.hk01.com/issue/828","","","","香港島"
"22.277192","114.164323","龍蝦吧餐廳 Lobster Bar and Grill","KOWLOON TONG SCHOOL (PRIMARY SECTION)","中西區","/","金鐘金鐘道88號太古廣場二座港島香格里拉酒店6樓","男女","酒店","C類餐廳","67","base","西式/酒吧/酒店餐廳","","","11月24日 - 11月29日","往年慣例","","12月18日 - 12月20日","往年慣例","https://www.hk01.com/issue/828","https://www.hk01.com/issue/828","","","","香港島"
"22.277152","114.1648871","Salisterra","KOWLOON TONG SCHOOL (PRIMARY SECTION)","中西區","/","金鐘金鐘道88號太古廣場奕居49樓","男女","酒店","C類餐廳","68","base","地中海菜/酒店餐廳","","","11月24日 - 11月29日","往年慣例","","12月18日 - 12月20日","往年慣例","https://www.hk01.com/issue/828","https://www.hk01.com/issue/828","","","","香港島"
"22.2769499643879","114.165206551552","樂聚廊 Lobby Lounge","KOWLOON TONG SCHOOL (PRIMARY SECTION)","中西區","/","金鐘金鐘道88號太古廣場港麗酒店大堂","男女","酒店","D類餐廳","69","base","西式/自助餐/酒吧/酒店餐廳","","","11月24日 - 11月29日","往年慣例","","12月18日 - 12月20日","往年慣例","https://www.hk01.com/issue/828","https://www.hk01.com/issue/828","","","","香港島"
"22.2769355","114.164603","夏宮 Summer Palace","KOWLOON TONG SCHOOL (PRIMARY SECTION)","中西區","/","金鐘金鐘道88號太古廣場二座港島香格里拉酒店5樓","男女","酒店","C類餐廳","70","base","粵菜/(廣東)/中菜館/酒店餐廳","","","11月24日 - 11月29日","往年慣例","","12月18日 - 12月20日","往年慣例","https://www.hk01.com/issue/828","https://www.hk01.com/issue/828","","","","香港島"
"22.2776275528685","114.166314303875","魚吧 Fish Bar","KOWLOON TONG SCHOOL (PRIMARY SECTION)","中西區","/","金鐘金鐘道88號太古廣場香港JW萬豪酒店7樓平台","男女","酒店","B類餐廳","71","base","多國菜/海鮮/酒吧/酒店餐廳/無翅餐廳","","","11月24日 - 11月29日","往年慣例","","12月18日 - 12月20日","往年慣例","https://www.hk01.com/issue/828","https://www.hk01.com/issue/828","","","","香港島"
"22.2769598924479","114.165206551552","咖啡園 Garden Cafe","KOWLOON TONG SCHOOL (PRIMARY SECTION)","中西區","/","金鐘金鐘道88號太古廣場港麗酒店大堂低座","男女","酒店","D類餐廳","72","base","多國菜/自助餐/酒店餐廳","","","11月24日 - 11月29日","往年慣例","","12月18日 - 12月20日","往年慣例","https://www.hk01.com/issue/828","https://www.hk01.com/issue/828","","","","香港島"
"22.2775737244164","114.166279435158","Flint","KOWLOON TONG SCHOOL (PRIMARY SECTION)","中西區","/","金鐘金鐘道88號太古廣場香港JW萬豪酒店5樓","男女","酒店","B類餐廳","73","base","多國菜/酒店餐廳/無翅餐廳","","","11月24日 - 11月29日","往年慣例","","12月18日 - 12月20日","往年慣例","https://www.hk01.com/issue/828","https://www.hk01.com/issue/828","","","","香港島"
"22.2768289","114.165429","懷歐敘 Brasserie on the Eighth","KOWLOON TONG SCHOOL (PRIMARY SECTION)","中西區","/","金鐘金鐘道88號太古廣場港麗酒店8樓","男女","酒店","D類餐廳","74","base","法國菜/Fine/Dining/酒店餐廳","","","11月24日 - 11月29日","往年慣例","","12月18日 - 12月20日","往年慣例","https://www.hk01.com/issue/828","https://www.hk01.com/issue/828","","","","香港島"
"22.2773618","114.1644802","灘萬日本料理 (太古廣場) Nadaman (One Pacific Place)","KOWLOON TONG SCHOOL (PRIMARY SECTION)","中西區","/","金鐘金鐘道88號太古廣場二座港島香格里拉酒店7樓","男女","酒店","C類餐廳","75","base","日本菜/鐵板燒/壽司/刺身/Fine/Dining/酒店餐廳","","","11月24日 - 11月29日","往年慣例","","12月18日 - 12月20日","往年慣例","https://www.hk01.com/issue/828","https://www.hk01.com/issue/828","","","","香港島"
"22.2768264","114.1652949","意寧谷 Nicholini's","KOWLOON TONG SCHOOL (PRIMARY SECTION)","中西區","/","金鐘金鐘道88號太古廣場港麗酒店8樓","男女","酒店","D類餐廳","76","base","意大利菜/酒/無肉餐單/Fine/Dining/酒店餐廳","","","11月24日 - 11月29日","往年慣例","","12月18日 - 12月20日","往年慣例","https://www.hk01.com/issue/828","https://www.hk01.com/issue/828","","","","香港島"
"22.2773527","114.1649692","港島香格里拉酒店大堂酒廊 Lobby Lounge (Island Shangri-La)","KOWLOON TONG SCHOOL (PRIMARY SECTION)","中西區","/","金鐘金鐘道88號太古廣場二座港島香格里拉酒店6樓","男女","酒店","C類餐廳","77","base","港式/西式/多國菜/西式糕點//酒吧/酒店餐廳","","","11月24日 - 11月29日","往年慣例","","12月18日 - 12月20日","往年慣例","https://www.hk01.com/issue/828","https://www.hk01.com/issue/828","","","","香港島"
"22.2769400363272","114.165195822716","金葉庭 Golden Leaf","KOWLOON TONG SCHOOL (PRIMARY SECTION)","中西區","/","金鐘金鐘道88號太古廣場港麗酒店大堂低座","男女","酒店","D類餐廳","78","base","粵菜/(廣東)/點心/酒樓/酒店餐廳","","","11月24日 - 11月29日","往年慣例","","12月18日 - 12月20日","往年慣例","https://www.hk01.com/issue/828","https://www.hk01.com/issue/828","","","","香港島"
"22.2771069","114.164715","高美食店 Island Gourmet","KOWLOON TONG SCHOOL (PRIMARY SECTION)","中西區","/","金鐘金鐘道88號太古廣場二座港島香格里拉酒店5樓","男女","酒店","C類餐廳","79","base","西式/麵包店/酒店餐廳","","","11月24日 - 11月29日","往年慣例","","12月18日 - 12月20日","往年慣例","https://www.hk01.com/issue/828","https://www.hk01.com/issue/828","","","","香港島"
"22.2777839","114.1653782","香港JW萬豪酒店宴會廳 Ballroom, JW Marriott Hotel Hong Kong","KOWLOON TONG SCHOOL (PRIMARY SECTION)","中西區","/","金鐘金鐘道88號太古廣場香港JW萬豪酒店","男女","酒店","B類餐廳","80","base","多國菜/自助餐/酒店餐廳/無翅餐廳","","","11月24日 - 11月29日","往年慣例","","12月18日 - 12月20日","往年慣例","https://www.hk01.com/issue/828","https://www.hk01.com/issue/828","","","","香港島"
"22.2771779","114.1643797","漪畔臺 Waterside Terrace","KOWLOON TONG SCHOOL (PRIMARY SECTION)","中西區","/","金鐘金鐘道88號太古廣場二座港島香格里拉酒店8樓","男女","酒店","C類餐廳","81","base","泰國菜/酒店餐廳","","","11月24日 - 11月29日","往年慣例","","12月18日 - 12月20日","往年慣例","https://www.hk01.com/issue/828","https://www.hk01.com/issue/828","","","","香港島"
"22.2771137772885","114.165222644806","港麗酒店餅店 Conrad Cake Shop","KOWLOON TONG SCHOOL (PRIMARY SECTION)","中西區","/","金鐘金鐘道88號太古廣場港麗酒店大堂低座","男女","酒店","B類餐廳","82","base","西式/麵包店/酒店餐廳","","","11月24日 - 11月29日","往年慣例","","12月18日 - 12月20日","往年慣例","https://www.hk01.com/issue/828","https://www.hk01.com/issue/828","","","","香港島"
"22.2775177","114.1660188","Bar Q88","KOWLOON TONG SCHOOL (PRIMARY SECTION)","中西區","/","金鐘金鐘道88號太古廣場香港JW萬豪酒店大堂","男女","酒店","B類餐廳","83","base","西式/自助餐/酒吧/酒店餐廳/無翅餐廳","","","11月24日 - 11月29日","往年慣例","","12月18日 - 12月20日","往年慣例","https://www.hk01.com/issue/828","https://www.hk01.com/issue/828","","","","香港島"
"22.2767222","114.1655122","港麗酒店宴會廳 Conrad Hong Kong Function Rooms","KOWLOON TONG SCHOOL (PRIMARY SECTION)","中西區","/","金鐘金鐘道88號太古廣場港麗酒店","男女","酒店","B類餐廳","84","base","西式/酒店餐廳","","","11月24日 - 11月29日","往年慣例","","12月18日 - 12月20日","往年慣例","https://www.hk01.com/issue/828","https://www.hk01.com/issue/828","","","","香港島"
"22.2768984","114.1653915","寶絲吧 Pacific Bar","KOWLOON TONG SCHOOL (PRIMARY SECTION)","中西區","/","金鐘金鐘道88號太古廣場港麗酒店8樓","男女","酒店","D類餐廳","85","base","西式/酒吧/酒店餐廳","","","11月24日 - 11月29日","往年慣例","","12月18日 - 12月20日","往年慣例","https://www.hk01.com/issue/828","https://www.hk01.com/issue/828","","","","香港島"
"22.249817","114.168118","IS Café","KOWLOON TONG SCHOOL (PRIMARY SECTION)","南區","/","香港仔黃竹坑道55號南灣如心酒店P3樓","男女","酒店","B類餐廳","86","base","多國菜/自助餐/清真認證食品/無肉餐單/酒店餐廳/咪嘥嘢食店/少鹽少糖食店","","","11月24日 - 11月29日","往年慣例","","12月18日 - 12月20日","往年慣例","https://www.hk01.com/issue/828","https://www.hk01.com/issue/828","","","","香港島"
"22.249817","114.168118","南灣如心酒店P6宴會廳 Nina Hotel Island South VIP Room","KOWLOON TONG SCHOOL (PRIMARY SECTION)","南區","/","香港仔黃竹坑道55號南灣如心酒店P6樓","男女","酒店","B類餐廳","87","base","多國菜/自助餐/酒店餐廳","","","11月24日 - 11月29日","往年慣例","","12月18日 - 12月20日","往年慣例","https://www.hk01.com/issue/828","https://www.hk01.com/issue/828","","","","香港島"
"22.24963","114.149553","明愛張奧偉國際賓館餐廳","KOWLOON TONG SCHOOL (PRIMARY SECTION)","南區","/","香港仔田灣街20號明愛張奧偉國際賓館1樓","男女","酒店","B類餐廳","88","base","西式/酒店餐廳","","","11月24日 - 11月29日","往年慣例","","12月18日 - 12月20日","往年慣例","https://www.hk01.com/issue/828","https://www.hk01.com/issue/828","","","","香港島"
"22.249817","114.168118","LIS Bar","KOWLOON TONG SCHOOL (PRIMARY SECTION)","南區","/","香港仔黃竹坑道55號南灣如心酒店3樓","男女","酒店","B類餐廳","89","base","西式/酒吧/酒店餐廳/少鹽少糖食店","","","11月24日 - 11月29日","往年慣例","","12月18日 - 12月20日","往年慣例","https://www.hk01.com/issue/828","https://www.hk01.com/issue/828","","","","香港島"
"22.2487465","114.1490811","45° 1/2 Bar","KOWLOON TONG SCHOOL (PRIMARY SECTION)","南區","/","香港仔石排灣道100號地舖","男女","酒店","B類餐廳","90","base","美國菜/All/Day/Breakfast/酒店餐廳","","","11月24日 - 11月29日","往年慣例","","12月18日 - 12月20日","往年慣例","https://www.hk01.com/issue/828","https://www.hk01.com/issue/828","","","","香港島"
"22.249817","114.168118","LIS Lounge","KOWLOON TONG SCHOOL (PRIMARY SECTION)","南區","/","香港仔黃竹坑道55號南灣如心酒店5樓","男女","酒店","B類餐廳","91","base","西式/酒店餐廳","","","11月24日 - 11月29日","往年慣例","","12月18日 - 12月20日","往年慣例","https://www.hk01.com/issue/828","https://www.hk01.com/issue/828","","","","香港島"
"22.257913","114.1985079","陽明山莊 Hong Kong Parkview","KOWLOON TONG SCHOOL (PRIMARY SECTION)","灣仔區","/","跑馬地大潭水塘道88號陽明山莊會所","男女","酒店","B類餐廳","92","base","粵菜/(廣東)/點心/咖啡店/酒店餐廳","","","11月24日 - 11月29日","往年慣例","","12月18日 - 12月20日","往年慣例","https://www.hk01.com/issue/828","https://www.hk01.com/issue/828","","","","香港島"
"22.280929","114.1831586","蟹仙海鮮蒸碢大公館 Crab Fairy","KOWLOON TONG SCHOOL (PRIMARY SECTION)","灣仔區","/","銅鑼灣謝斐道500號維安商業大廈地下-1樓","男女","酒店","C類餐廳","93","base","粵菜/(廣東)/港式/蒸氣火鍋/海鮮酒家/蟹店","","","11月24日 - 11月29日","往年慣例","","12月18日 - 12月20日","往年慣例","https://www.hk01.com/issue/828","https://www.hk01.com/issue/828","","","","香港島"
"22.2797035","114.1838445","LIFETASTIC (希慎廣場)","KOWLOON TONG SCHOOL (PRIMARY SECTION)","灣仔區","/","銅鑼灣軒尼詩道500號希慎廣場3樓326及330-331號舖","男女","酒店","B類餐廳","94","base","澳洲菜/西式/甜品/糖水/西式糕點","","","11月24日 - 11月29日","往年慣例","","12月18日 - 12月20日","往年慣例","https://www.hk01.com/issue/828","https://www.hk01.com/issue/828","","","","香港島"
"22.2811398","114.1863864","PLAYT 咖啡廳 PLAYT","KOWLOON TONG SCHOOL (PRIMARY SECTION)","灣仔區","/","銅鑼灣告士打道310號柏寧酒店1樓","男女","酒店","B類餐廳","95","base","西式/多國菜/自助餐/酒店餐廳","","","11月24日 - 11月29日","往年慣例","","12月18日 - 12月20日","往年慣例","https://www.hk01.com/issue/828","https://www.hk01.com/issue/828","","","","香港島"
"22.2770049","114.1826639","Marble","KOWLOON TONG SCHOOL (PRIMARY SECTION)","灣仔區","/","銅鑼灣禮頓道8號香港銅鑼灣皇冠假日酒店1樓","男女","酒店","B類餐廳","96","base","日本菜/法國菜/酒店餐廳","","","11月24日 - 11月29日","往年慣例","","12月18日 - 12月20日","往年慣例","https://www.hk01.com/issue/828","https://www.hk01.com/issue/828","","","","香港島"
"22.2774081","114.1803256","Wako Sake Bar","KOWLOON TONG SCHOOL (PRIMARY SECTION)","灣仔區","/","銅鑼灣摩理臣山道23號南洋酒店2樓","男女","酒店","C類餐廳","97","base","日本菜/酒/串燒/酒吧/酒店餐廳/居酒屋","","","11月24日 - 11月29日","往年慣例","","12月18日 - 12月20日","往年慣例","https://www.hk01.com/issue/828","https://www.hk01.com/issue/828","","","","香港島"
"22.2792","114.1883076","協奏坊西餐廳 Sonata Western Restaurant","KOWLOON TONG SCHOOL (PRIMARY SECTION)","灣仔區","/","銅鑼灣信德街8號香港珀麗酒店2樓","男女","酒店","B類餐廳","98","base","多國菜/自助餐/酒店餐廳","","","11月24日 - 11月29日","往年慣例","","12月18日 - 12月20日","往年慣例","https://www.hk01.com/issue/828","https://www.hk01.com/issue/828","","","","香港島"
"22.2770555","114.1827187","鮨一魂 Sushi Ikkon","KOWLOON TONG SCHOOL (PRIMARY SECTION)","灣仔區","/","銅鑼灣禮頓道8號香港銅鑼灣皇冠假日酒店1樓","男女","酒店","B類餐廳","99","base","日本菜/壽司/刺身/廚師發辦/酒店餐廳","","","11月24日 - 11月29日","往年慣例","","12月18日 - 12月20日","往年慣例","https://www.hk01.com/issue/828","https://www.hk01.com/issue/828","","","","香港島"
"22.2792731112253","114.18680369854","御花園咖啡室 Cafe Rivoli","KOWLOON TONG SCHOOL (PRIMARY SECTION)","灣仔區","/","銅鑼灣怡和街88號富豪香港酒店1樓","男女","酒店","B類餐廳","100","base","西式/自助餐/酒店餐廳/咪嘥嘢食店","","","11月24日 - 11月29日","往年慣例","","12月18日 - 12月20日","往年慣例","https://www.hk01.com/issue/828","https://www.hk01.com/issue/828","","","","香港島"
"22.2792681472775","114.18680369854","富豪金殿 Regal Palace","KOWLOON TONG SCHOOL (PRIMARY SECTION)","灣仔區","/","銅鑼灣怡和街88號富豪香港酒店3樓","男女","酒店","B類餐廳","101","base","粵菜/(廣東)/點心/酒樓/酒店餐廳","","","11月24日 - 11月29日","往年慣例","","12月18日 - 12月20日","往年慣例","https://www.hk01.com/issue/828","https://www.hk01.com/issue/828","","","","香港島"
"22.279148","114.1868295","Alto 88","KOWLOON TONG SCHOOL (PRIMARY SECTION)","灣仔區","/","銅鑼灣怡和街88號富豪香港酒店31樓","男女","酒店","B類餐廳","102","base","意大利菜/酒店餐廳","","","11月24日 - 11月29日","往年慣例","","12月18日 - 12月20日","往年慣例","https://www.hk01.com/issue/828","https://www.hk01.com/issue/828","","","","香港島"
"22.277237877843","114.182673096657","Club @28","KOWLOON TONG SCHOOL (PRIMARY SECTION)","灣仔區","/","銅鑼灣禮頓道8號香港銅鑼灣皇冠假日酒店28樓","男女","酒店","D類餐廳","103","base","西式/酒/酒吧/酒店餐廳","","","11月24日 - 11月29日","往年慣例","","12月18日 - 12月20日","往年慣例","https://www.hk01.com/issue/828","https://www.hk01.com/issue/828","","","","香港島"
"22.2811709","114.1864531","柏寧宴會廳 I-VI Park Lane Room I-VI","KOWLOON TONG SCHOOL (PRIMARY SECTION)","灣仔區","/","銅鑼灣告士打道310號柏寧酒店27樓","男女","酒店","B類餐廳","104","base","粵菜/(廣東)/酒店餐廳","","","11月24日 - 11月29日","往年慣例","","12月18日 - 12月20日","往年慣例","https://www.hk01.com/issue/828","https://www.hk01.com/issue/828","","","","香港島"
"22.2792681472775","114.186798334122","帝廊 Tiffany Lounge","KOWLOON TONG SCHOOL (PRIMARY SECTION)","灣仔區","/","銅鑼灣怡和街88號富豪香港酒店地下","男女","酒店","B類餐廳","105","base","西式/酒吧/酒店餐廳","","","11月24日 - 11月29日","往年慣例","","12月18日 - 12月20日","往年慣例","https://www.hk01.com/issue/828","https://www.hk01.com/issue/828","","","","香港島"
"22.2798013440726","114.179529547691","The Champagne Bar","KOWLOON TONG SCHOOL (PRIMARY SECTION)","灣仔區","/","銅鑼灣謝斐道388號問月酒店5樓","男女","酒店","B類餐廳","106","base","西式/酒吧/酒店餐廳","","","11月24日 - 11月29日","往年慣例","","12月18日 - 12月20日","往年慣例","https://www.hk01.com/issue/828","https://www.hk01.com/issue/828","","","","香港島"
"22.2771534894779","114.180693626404","Pasta Café","KOWLOON TONG SCHOOL (PRIMARY SECTION)","灣仔區","/","銅鑼灣寶靈頓道38號華麗銅鑼灣酒店6樓","男女","酒店","B類餐廳","107","base","西式/酒店餐廳","","","11月24日 - 11月29日","往年慣例","","12月18日 - 12月20日","往年慣例","https://www.hk01.com/issue/828","https://www.hk01.com/issue/828","","","","香港島"
"22.243799","114.1588541","深灣軒會所餐廳 Sham Wan Tower Clubhouse Restaurant","KOWLOON TONG SCHOOL (PRIMARY SECTION)","南區","/","鴨脷洲鴨脷洲徑3號深灣軒會所內","男女","酒店","B類餐廳","108","base","粵菜/(廣東)/西式/酒店餐廳","","","11月24日 - 11月29日","往年慣例","","12月18日 - 12月20日","往年慣例","https://www.hk01.com/issue/828","https://www.hk01.com/issue/828","","","","香港島"
"22.2773666","114.171176","Boire et Manger","KOWLOON TONG SCHOOL (PRIMARY SECTION)","灣仔區","/","灣仔軒尼詩道68號新禧大樓地下A號舖","男女","酒店","D類餐廳","109","base","法國菜/西式/多國菜/酒/扒房","","","11月24日 - 11月29日","往年慣例","","12月18日 - 12月20日","往年慣例","https://www.hk01.com/issue/828","https://www.hk01.com/issue/828","","","","香港島"
"22.2814919782611","114.172132015228","茶園 Tiffin","KOWLOON TONG SCHOOL (PRIMARY SECTION)","灣仔區","/","灣仔港灣道1號君悅酒店閣樓","男女","酒店","B類餐廳","110","base","西式/自助餐/酒店餐廳","","","11月24日 - 11月29日","往年慣例","","12月18日 - 12月20日","往年慣例","https://www.hk01.com/issue/828","https://www.hk01.com/issue/828","","","","香港島"
"22.2789852019601","114.176396727562","Le Cafe (香港諾富特世紀酒店)","KOWLOON TONG SCHOOL (PRIMARY SECTION)","灣仔區","/","灣仔謝斐道238號香港諾富特世紀酒店1樓","男女","酒店","B類餐廳","111","base","西式/海鮮/自助餐/酒店餐廳","","","11月24日 - 11月29日","往年慣例","","12月18日 - 12月20日","往年慣例","https://www.hk01.com/issue/828","https://www.hk01.com/issue/828","","","","香港島"
"22.2815167976038","114.173709154129","萬麗咖啡室 Cafe Renaissance","KOWLOON TONG SCHOOL (PRIMARY SECTION)","灣仔區","/","灣仔港灣道1號香港萬麗海景酒店閣樓","男女","酒店","B類餐廳","112","base","多國菜/自助餐/酒店餐廳","","","11月24日 - 11月29日","往年慣例","","12月18日 - 12月20日","往年慣例","https://www.hk01.com/issue/828","https://www.hk01.com/issue/828","","","","香港島"
"22.28149694213","114.17212665081","君悅咖啡廳 Grand Cafe","KOWLOON TONG SCHOOL (PRIMARY SECTION)","灣仔區","/","灣仔港灣道1號君悅酒店大堂","男女","酒店","B類餐廳","113","base","西式/自助餐/咖啡店/酒店餐廳","","","11月24日 - 11月29日","往年慣例","","12月18日 - 12月20日","往年慣例","https://www.hk01.com/issue/828","https://www.hk01.com/issue/828","","","","香港島"
"22.281513","114.173782","Mirage Bar & Restaurant","KOWLOON TONG SCHOOL (PRIMARY SECTION)","灣仔區","/","灣仔港灣道1號香港萬麗海景酒店1樓","男女","酒店","B類餐廳","114","base","西式/酒吧/酒店餐廳","","","11月24日 - 11月29日","往年慣例","","12月18日 - 12月20日","往年慣例","https://www.hk01.com/issue/828","https://www.hk01.com/issue/828","","","","香港島"
"22.2803031265879","114.171096682549","灣景廳 Harbour Restaurant","KOWLOON TONG SCHOOL (PRIMARY SECTION)","灣仔區","/","灣仔港灣道4號灣景國際1樓","男女","酒店","C類餐廳","115","base","西式/自助餐/酒店餐廳/咪嘥嘢食店","","","11月24日 - 11月29日","往年慣例","","12月18日 - 12月20日","往年慣例","https://www.hk01.com/issue/828","https://www.hk01.com/issue/828","","","","香港島"
"22.2798647","114.1748977","潤 Rùn","KOWLOON TONG SCHOOL (PRIMARY SECTION)","灣仔區","/","灣仔港灣徑1號香港瑞吉酒店2樓","男女","酒店","C類餐廳","116","base","粵菜/(廣東)/點心/Fine/Dining/中菜館/酒店餐廳","","","11月24日 - 11月29日","往年慣例","","12月18日 - 12月20日","往年慣例","https://www.hk01.com/issue/828","https://www.hk01.com/issue/828","","","","香港島"
"22.2814820505228","114.172115921974","Grand Hyatt Steakhouse","KOWLOON TONG SCHOOL (PRIMARY SECTION)","灣仔區","/","灣仔港灣道1號君悅酒店大堂","男女","酒店","B類餐廳","117","base","西式/Fine/Dining/扒房/酒店餐廳","","","11月24日 - 11月29日","往年慣例","","12月18日 - 12月20日","往年慣例","https://www.hk01.com/issue/828","https://www.hk01.com/issue/828","","","","香港島"
"22.2798647","114.1748977","The Drawing Room","KOWLOON TONG SCHOOL (PRIMARY SECTION)","灣仔區","/","灣仔港灣徑1號香港瑞吉酒店2樓","男女","酒店","B類餐廳","118","base","西式/多國菜/酒/果汁/西式糕點//咖啡店/酒店餐廳","","","11月24日 - 11月29日","往年慣例","","12月18日 - 12月20日","往年慣例","https://www.hk01.com/issue/828","https://www.hk01.com/issue/828","","","","香港島"
"22.281049","114.17486","明閣 Ming Court","KOWLOON TONG SCHOOL (PRIMARY SECTION)","灣仔區","/","灣仔港灣道23號鷹君中心2樓","男女","酒店","D類餐廳","119","base","粵菜/(廣東)/燒臘/點心/中菜館/酒店餐廳","","","11月24日 - 11月29日","往年慣例","","12月18日 - 12月20日","往年慣例","https://www.hk01.com/issue/828","https://www.hk01.com/issue/828","","","","香港島"
"22.2798647","114.1748977","L'Envol","KOWLOON TONG SCHOOL (PRIMARY SECTION)","灣仔區","/","灣仔港灣徑1號香港瑞吉酒店3樓","男女","酒店","C類餐廳","120","base","法國菜/Fine/Dining/酒店餐廳","","","11月24日 - 11月29日","往年慣例","","12月18日 - 12月20日","往年慣例","https://www.hk01.com/issue/828","https://www.hk01.com/issue/828","","","","香港島"
"22.2814870143921","114.172132015228","Grissini 意大利餐廳","KOWLOON TONG SCHOOL (PRIMARY SECTION)","灣仔區","/","灣仔港灣道1號君悅酒店2樓","男女","酒店","C類餐廳","121","base","意大利菜/Fine/Dining/酒店餐廳","","","11月24日 - 11月29日","往年慣例","","12月18日 - 12月20日","往年慣例","https://www.hk01.com/issue/828","https://www.hk01.com/issue/828","","","","香港島"
"22.2815167976038","114.173698425293","滿福樓 Dynasty Restaurant","KOWLOON TONG SCHOOL (PRIMARY SECTION)","灣仔區","/","灣仔港灣道1號香港萬麗海景酒店3樓","男女","酒店","B類餐廳","122","base","粵菜/(廣東)/大閘蟹/中式包點/中式糖水/中菜館/酒店餐廳","","","11月24日 - 11月29日","往年慣例","","12月18日 - 12月20日","往年慣例","https://www.hk01.com/issue/828","https://www.hk01.com/issue/828","","","","香港島"
"22.281286","114.17209","港灣壹號 One Harbour Road","KOWLOON TONG SCHOOL (PRIMARY SECTION)","灣仔區","/","灣仔港灣道1號君悅酒店7-8樓","男女","酒店","C類餐廳","123","base","粵菜/(廣東)/點心/Fine/Dining/中菜館/酒店餐廳/無翅餐廳","","","11月24日 - 11月29日","往年慣例","","12月18日 - 12月20日","往年慣例","https://www.hk01.com/issue/828","https://www.hk01.com/issue/828","","","","香港島"
"22.278358","114.171173","銀座神樂屋 Ginza Kaguraya","KOWLOON TONG SCHOOL (PRIMARY SECTION)","灣仔區","/","灣仔駱克道57-73號香港華美粵海酒店1樓","男女","酒店","B類餐廳","124","base","日本菜/烏冬/日式放題/酒店餐廳","","","11月24日 - 11月29日","往年慣例","","12月18日 - 12月20日","往年慣例","https://www.hk01.com/issue/828","https://www.hk01.com/issue/828","","","","香港島"
"22.278865","114.172354","粵軒 Canton Room","KOWLOON TONG SCHOOL (PRIMARY SECTION)","灣仔區","/","灣仔告士打道72號六國酒店1樓","男女","酒店","D類餐廳","125","base","粵菜/(廣東)/中菜館/酒店餐廳","","","11月24日 - 11月29日","往年慣例","","12月18日 - 12月20日","往年慣例","https://www.hk01.com/issue/828","https://www.hk01.com/issue/828","","","","香港島"
"22.2789107425709","114.176399409771","Pepino 意大利餐廳 Pepino Italian Restaurant","KOWLOON TONG SCHOOL (PRIMARY SECTION)","灣仔區","/","灣仔灣仔謝斐道238號香港諾富特世紀酒店1樓","男女","酒店","B類餐廳","126","base","意大利菜/酒店餐廳","","","11月24日 - 11月29日","往年慣例","","12月18日 - 12月20日","往年慣例","https://www.hk01.com/issue/828","https://www.hk01.com/issue/828","","","","香港島"
"22.277706","114.179136","陳家廚房","KOWLOON TONG SCHOOL (PRIMARY SECTION)","灣仔區","/","灣仔灣仔道209-210號銅鑼灣利景酒店地庫1樓","男女","酒店","C類餐廳","127","base","粵菜/(廣東)/西式/多國菜/酒店餐廳","","","11月24日 - 11月29日","往年慣例","","12月18日 - 12月20日","往年慣例","https://www.hk01.com/issue/828","https://www.hk01.com/issue/828","","","","香港島"
"22.27741","114.180304","老雪園 Lao Xue Yuan","KOWLOON TONG SCHOOL (PRIMARY SECTION)","灣仔區","/","灣仔摩理臣山道23號南洋酒店地庫1樓","男女","酒店","C類餐廳","128","base","滬菜/(上海)/點心/中菜館/酒店餐廳","","","11月24日 - 11月29日","往年慣例","","12月18日 - 12月20日","往年慣例","https://www.hk01.com/issue/828","https://www.hk01.com/issue/828","","","","香港島"
"22.2747831484227","114.1782528162","Monkey Cafe","KOWLOON TONG SCHOOL (PRIMARY SECTION)","灣仔區","/","灣仔皇后大道東373號英皇駿景酒店地下","男女","酒店","C類餐廳","129","base","西式/扒房/酒店餐廳","","","11月24日 - 11月29日","往年慣例","","12月18日 - 12月20日","往年慣例","https://www.hk01.com/issue/828","https://www.hk01.com/issue/828","","","","香港島"
"22.2789272","114.1784672","Lucciola Restaurant & Bar","KOWLOON TONG SCHOOL (PRIMARY SECTION)","灣仔區","/","灣仔駱克道330號The Hari Hong Kong1樓","男女","酒店","C類餐廳","130","base","意大利菜/酒店餐廳","","","11月24日 - 11月29日","往年慣例","","12月18日 - 12月20日","往年慣例","https://www.hk01.com/issue/828","https://www.hk01.com/issue/828","","","","香港島"
"22.2788428","114.1721938","Le Menu","KOWLOON TONG SCHOOL (PRIMARY SECTION)","灣仔區","/","灣仔告士打道72號六國酒店1樓","男女","酒店","B類餐廳","131","base","西式/自助餐/咖啡店/酒店餐廳","","","11月24日 - 11月29日","往年慣例","","12月18日 - 12月20日","往年慣例","https://www.hk01.com/issue/828","https://www.hk01.com/issue/828","","","","香港島"
"22.2789272","114.1784672","族 Zoku Restaurant & Terrace","KOWLOON TONG SCHOOL (PRIMARY SECTION)","灣仔區","/","灣仔駱克道330號The Hari 2樓","男女","酒店","B類餐廳","132","base","日本菜/酒店餐廳","","","11月24日 - 11月29日","往年慣例","","12月18日 - 12月20日","往年慣例","https://www.hk01.com/issue/828","https://www.hk01.com/issue/828","","","","香港島"
"22.2798647","114.1748977","The St. Regis Bar","KOWLOON TONG SCHOOL (PRIMARY SECTION)","灣仔區","/","灣仔港灣徑1號香港瑞吉酒店2樓","男女","酒店","B類餐廳","133","base","西式/多國菜/酒/酒吧/酒店餐廳","","","11月24日 - 11月29日","往年慣例","","12月18日 - 12月20日","往年慣例","https://www.hk01.com/issue/828","https://www.hk01.com/issue/828","","","","香港島"
"22.2810524","114.1731035","鹿悅日本餐廳 Kaetsu","KOWLOON TONG SCHOOL (PRIMARY SECTION)","灣仔區","/","灣仔港灣道1號君悅酒店閣樓","男女","酒店","B類餐廳","134","base","日本菜/壽司/刺身/Fine/Dining/酒店餐廳","","","11月24日 - 11月29日","往年慣例","","12月18日 - 12月20日","往年慣例","https://www.hk01.com/issue/828","https://www.hk01.com/issue/828","","","","香港島"
"22.28149694213","114.172132015228","露天池畔餐廳 The Grill","KOWLOON TONG SCHOOL (PRIMARY SECTION)","灣仔區","/","灣仔港灣道1號君悅酒店11樓","男女","酒店","B類餐廳","135","base","西式/燒烤/自助餐/酒店餐廳","","","11月24日 - 11月29日","往年慣例","","12月18日 - 12月20日","往年慣例","https://www.hk01.com/issue/828","https://www.hk01.com/issue/828","","","","香港島"
"22.281052","114.173104","Chocolatier 糖果屋 Chocolatier","KOWLOON TONG SCHOOL (PRIMARY SECTION)","灣仔區","/","灣仔港灣道1號君悅酒店閣樓","男女","酒店","B類餐廳","136","base","西式/西式糕點//咖啡店/酒店餐廳/朱古力/糖果店/無翅餐廳","","","11月24日 - 11月29日","往年慣例","","12月18日 - 12月20日","往年慣例","https://www.hk01.com/issue/828","https://www.hk01.com/issue/828","","","","香港島"
"22.2800028096392","114.171295166016","灣景國際宴會廳","KOWLOON TONG SCHOOL (PRIMARY SECTION)","灣仔區","/","灣仔港灣道4號灣景國際2樓","男女","酒店","B類餐廳","137","base","多國菜/自助餐/酒店餐廳","","","11月24日 - 11月29日","往年慣例","","12月18日 - 12月20日","往年慣例","https://www.hk01.com/issue/828","https://www.hk01.com/issue/828","","","","香港島"
"22.277852","114.170562","Kew Space","KOWLOON TONG SCHOOL (PRIMARY SECTION)","灣仔區","/","灣仔軒尼詩道41-49號香港灣仔睿景酒店M樓","男女","酒店","B類餐廳","138","base","西式/自助餐/酒吧/酒店餐廳","","","11月24日 - 11月29日","往年慣例","","12月18日 - 12月20日","往年慣例","https://www.hk01.com/issue/828","https://www.hk01.com/issue/828","","","","香港島"
"22.2810524","114.1731035","The Teppanroom","KOWLOON TONG SCHOOL (PRIMARY SECTION)","灣仔區","/","灣仔港灣道1君悅酒店閣樓 (鹿悅日本餐廳內)","男女","酒店","B類餐廳","139","base","日本菜/鐵板燒/酒店餐廳","","","11月24日 - 11月29日","往年慣例","","12月18日 - 12月20日","往年慣例","https://www.hk01.com/issue/828","https://www.hk01.com/issue/828","","","","香港島"
"22.2748005227965","114.178255498409","The Crown","KOWLOON TONG SCHOOL (PRIMARY SECTION)","灣仔區","/","灣仔皇后大道東373號英皇駿景酒店25樓","男女","酒店","D類餐廳","140","base","多國菜/酒/酒吧/酒店餐廳/名人店","","","11月24日 - 11月29日","往年慣例","","12月18日 - 12月20日","往年慣例","https://www.hk01.com/issue/828","https://www.hk01.com/issue/828","","","","香港島"
"22.278358","114.171173","Delaney's Wanchai","KOWLOON TONG SCHOOL (PRIMARY SECTION)","灣仔區","/","灣仔駱克道57-73號華美粵海酒店地庫","男女","酒店","C類餐廳","141","base","多國菜/素食/薄餅/酒吧/酒店餐廳","","","11月24日 - 11月29日","往年慣例","","12月18日 - 12月20日","往年慣例","https://www.hk01.com/issue/828","https://www.hk01.com/issue/828","","","","香港島"
"22.277879","114.170089","皇悅33西餐廳 Cafe 33 on Hennessy","KOWLOON TONG SCHOOL (PRIMARY SECTION)","灣仔區","/","灣仔軒尼詩道33號灣仔皇悅酒店地下1層","男女","酒店","B類餐廳","142","base","西式/酒店餐廳","","","11月24日 - 11月29日","往年慣例","","12月18日 - 12月20日","往年慣例","https://www.hk01.com/issue/828","https://www.hk01.com/issue/828","","","","香港島"
"22.2748068","114.1733125","Skybar","KOWLOON TONG SCHOOL (PRIMARY SECTION)","灣仔區","/","灣仔皇后大道東246號港島英迪格酒店29樓","男女","酒店","B類餐廳","143","base","西式/酒吧/酒店餐廳","","","11月24日 - 11月29日","往年慣例","","12月18日 - 12月20日","往年慣例","https://www.hk01.com/issue/828","https://www.hk01.com/issue/828","","","","香港島"
"22.2747831","114.1732827","indicolite RESTAURANT","KOWLOON TONG SCHOOL (PRIMARY SECTION)","灣仔區","/","灣仔皇后大道東246號港島英迪格酒店2樓","男女","酒店","B類餐廳","144","base","多國菜/酒/海鮮/酒店餐廳","","","11月24日 - 11月29日","往年慣例","","12月18日 - 12月20日","往年慣例","https://www.hk01.com/issue/828","https://www.hk01.com/issue/828","","","","香港島"
"22.2788428","114.1721938","六國酒店大堂酒廊 Lobby Lounge","KOWLOON TONG SCHOOL (PRIMARY SECTION)","灣仔區","/","灣仔告士打道72號六國酒店地下","男女","酒店","B類餐廳","145","base","西式/酒吧/酒店餐廳","","","11月24日 - 11月29日","往年慣例","","12月18日 - 12月20日","往年慣例","https://www.hk01.com/issue/828","https://www.hk01.com/issue/828","","","","香港島"
"22.2787815","114.1762102","AK's Bar + Lounge","KOWLOON TONG SCHOOL (PRIMARY SECTION)","灣仔區","/","灣仔謝斐道238號香港諾富特世紀酒店1樓與大堂之間","男女","酒店","B類餐廳","146","base","西式/酒吧/酒店餐廳","","","11月24日 - 11月29日","往年慣例","","12月18日 - 12月20日","往年慣例","https://www.hk01.com/issue/828","https://www.hk01.com/issue/828","","","","香港島"
"22.2810524","114.1731035","宴會大禮堂 Grand Ballroom","KOWLOON TONG SCHOOL (PRIMARY SECTION)","灣仔區","/","灣仔港灣道1號君悅酒店大堂","男女","酒店","B類餐廳","147","base","西式/酒店餐廳/咪嘥嘢食店/無翅餐廳","","","11月24日 - 11月29日","往年慣例","","12月18日 - 12月20日","往年慣例","https://www.hk01.com/issue/828","https://www.hk01.com/issue/828","","","","香港島"
"22.2747302896404","114.1784361998","The Nooch Bar","KOWLOON TONG SCHOOL (PRIMARY SECTION)","灣仔區","/","灣仔皇后大道東375-377號香港麗悅酒店地下","男女","酒店","B類餐廳","148","base","西式/多國菜/串燒/酒吧/酒店餐廳","","","11月24日 - 11月29日","往年慣例","","12月18日 - 12月20日","往年慣例","https://www.hk01.com/issue/828","https://www.hk01.com/issue/828","","","","香港島"
"22.274547","114.178926","3T酒吧 3T Bar","KOWLOON TONG SCHOOL (PRIMARY SECTION)","灣仔區","/","灣仔皇后大道東387-397號麗都酒店大堂","男女","酒店","B類餐廳","149","base","西式/酒吧/酒店餐廳","","","11月24日 - 11月29日","往年慣例","","12月18日 - 12月20日","往年慣例","https://www.hk01.com/issue/828","https://www.hk01.com/issue/828","","","","香港島"
"22.2814001","114.1726631","The Waterfall Bar","KOWLOON TONG SCHOOL (PRIMARY SECTION)","灣仔區","/","灣仔港灣道1號君悅酒店11樓","男女","酒店","B類餐廳","150","base","西式/酒/酒吧/酒店餐廳/無翅餐廳","","","11月24日 - 11月29日","往年慣例","","12月18日 - 12月20日","往年慣例","https://www.hk01.com/issue/828","https://www.hk01.com/issue/828","","","","香港島"
"22.274820379221","114.17841643095","Breeze","KOWLOON TONG SCHOOL (PRIMARY SECTION)","灣仔區","/","灣仔皇后大道東375-377號麗悅酒店5樓","男女","酒店","B類餐廳","151","base","西式/酒吧/酒店餐廳","","","11月24日 - 11月29日","往年慣例","","12月18日 - 12月20日","往年慣例","https://www.hk01.com/issue/828","https://www.hk01.com/issue/828","","","","香港島"
"22.286014","114.216214","FEAST (Food By EAST)","KOWLOON TONG SCHOOL (PRIMARY SECTION)","東區","/","太古太古城太古城道29號東隅1樓","男女","酒店","C類餐廳","152","base","多國菜/自助餐/酒店餐廳","","","11月24日 - 11月29日","往年慣例","","12月18日 - 12月20日","往年慣例","https://www.hk01.com/issue/828","https://www.hk01.com/issue/828","","","","香港島"
"22.2860064","114.2160626","Sugar","KOWLOON TONG SCHOOL (PRIMARY SECTION)","東區","/","太古太古城太古城道29號東隅32樓","男女","酒店","D類餐廳","153","base","多國菜/酒/串燒/酒吧/酒店餐廳","","","11月24日 - 11月29日","往年慣例","","12月18日 - 12月20日","往年慣例","https://www.hk01.com/issue/828","https://www.hk01.com/issue/828","","","","香港島"
"22.2860262548334","114.215995544775","Domain","KOWLOON TONG SCHOOL (PRIMARY SECTION)","東區","/","太古太古城道29號東隅1樓","男女","酒店","C類餐廳","154","base","西式/三文治/西式糕點//咖啡店/酒店餐廳","","","11月24日 - 11月29日","往年慣例","","12月18日 - 12月20日","往年慣例","https://www.hk01.com/issue/828","https://www.hk01.com/issue/828","","","","香港島"
"22.2833509348349","114.192830622196","Corner 18","KOWLOON TONG SCHOOL (PRIMARY SECTION)","東區","/","天后英皇道18號銅鑼灣如心酒店1樓","男女","酒店","B類餐廳","155","base","多國菜/自助餐/酒店餐廳/少鹽少糖食店","","","11月24日 - 11月29日","往年慣例","","12月18日 - 12月20日","往年慣例","https://www.hk01.com/issue/828","https://www.hk01.com/issue/828","","","","香港島"
"22.2832644","114.192838","阿翁小館 Ah Yung Kitchen","KOWLOON TONG SCHOOL (PRIMARY SECTION)","東區","/","天后英皇道18號銅鑼灣如心酒店地庫","男女","酒店","C類餐廳","156","base","粵菜/(廣東)/點心/中菜館/酒店餐廳/咪嘥嘢食店/少鹽少糖食店","","","11月24日 - 11月29日","往年慣例","","12月18日 - 12月20日","往年慣例","https://www.hk01.com/issue/828","https://www.hk01.com/issue/828","","","","香港島"
"22.283244","114.192848","銅鑼灣如心酒店39樓天際宴會廳 Nina Hotel Causeway Bay The Penthouse Function Room","KOWLOON TONG SCHOOL (PRIMARY SECTION)","東區","/","天后英皇道18號銅鑼灣如心酒店39樓","男女","酒店","B類餐廳","157","base","多國菜/酒店餐廳","","","11月24日 - 11月29日","往年慣例","","12月18日 - 12月20日","往年慣例","https://www.hk01.com/issue/828","https://www.hk01.com/issue/828","","","","香港島"
"22.281292","114.192157","Vic's 酒廊 Vic's Pub","KOWLOON TONG SCHOOL (PRIMARY SECTION)","東區","/","天后銅鑼灣道148號香港銅鑼灣維景酒店1樓","男女","酒店","B類餐廳","158","base","西式/酒吧/酒店餐廳","","","11月24日 - 11月29日","往年慣例","","12月18日 - 12月20日","往年慣例","https://www.hk01.com/issue/828","https://www.hk01.com/issue/828","","","","香港島"
"22.2851900117437","114.192098379135","皇悅廚房 Empire’s Kitchen","KOWLOON TONG SCHOOL (PRIMARY SECTION)","東區","/","天后永興街8號銅鑼灣皇悅酒店1樓","男女","酒店","B類餐廳","159","base","多國菜/自助餐/酒店餐廳","","","11月24日 - 11月29日","往年慣例","","12月18日 - 12月20日","往年慣例","https://www.hk01.com/issue/828","https://www.hk01.com/issue/828","","","","香港島"
"22.283244","114.192848","銅鑼灣如心酒店40樓天際會議廳 Nina Hotel Causeway Bay The Penthouse Meeting Room","KOWLOON TONG SCHOOL (PRIMARY SECTION)","東區","/","天后英皇道18號銅鑼灣如心酒店40樓","男女","酒店","B類餐廳","160","base","多國菜/酒店餐廳","","","11月24日 - 11月29日","往年慣例","","12月18日 - 12月20日","往年慣例","https://www.hk01.com/issue/828","https://www.hk01.com/issue/828","","","","香港島"
"22.248056","114.1754829","海灣餐廳及海灣咖啡室 Marina Kitchen and Marina Cafe","KOWLOON TONG SCHOOL (PRIMARY SECTION)","南區","/","黃竹坑黃竹坑道180號香港海洋公園萬豪酒店海灣地下","男女","酒店","C類餐廳","161","base","西式/自助餐/酒店餐廳/無翅餐廳","","","11月24日 - 11月29日","往年慣例","","12月18日 - 12月20日","往年慣例","https://www.hk01.com/issue/828","https://www.hk01.com/issue/828","","","","香港島"
"22.2477592","114.1627462","Arca Society","KOWLOON TONG SCHOOL (PRIMARY SECTION)","南區","/","黃竹坑香葉道43號雅格酒店3樓","男女","酒店","B類餐廳","162","base","多國菜/酒店餐廳","","","11月24日 - 11月29日","往年慣例","","12月18日 - 12月20日","往年慣例","https://www.hk01.com/issue/828","https://www.hk01.com/issue/828","","","","香港島"
"22.249579","114.1690321","Above","KOWLOON TONG SCHOOL (PRIMARY SECTION)","南區","/","黃竹坑黃竹坑道64號Ovolo南岸23-24樓","男女","酒店","B類餐廳","163","base","西式/酒吧/酒店餐廳","","","11月24日 - 11月29日","往年慣例","","12月18日 - 12月20日","往年慣例","https://www.hk01.com/issue/828","https://www.hk01.com/issue/828","","","","香港島"
"22.3284056545658","114.190458208323","蟹仙海鮮蒸氣鍋 (龍崗道) Crab Fairy (Lung Kong Road)","KOWLOON TONG SCHOOL (PRIMARY SECTION)","九龍城區","/","九龍城龍崗道2-4號地下","男女","酒店","C類餐廳","164","base","港式/海鮮/蒸氣火鍋/蟹店","","","11月24日 - 11月29日","往年慣例","","12月18日 - 12月20日","往年慣例","https://www.hk01.com/issue/828","https://www.hk01.com/issue/828","","","","九龍"
"22.329877","114.193011","富豪坊 Regal Terrace","KOWLOON TONG SCHOOL (PRIMARY SECTION)","九龍城區","/","九龍城沙浦道30-38號富豪東方酒店2樓","男女","酒店","B類餐廳","165","base","粵菜/(廣東)/海鮮/山珍海味/點心/無肉餐單/酒樓/酒店餐廳/海鮮酒家","","","11月24日 - 11月29日","往年慣例","","12月18日 - 12月20日","往年慣例","https://www.hk01.com/issue/828","https://www.hk01.com/issue/828","","","","九龍"
"22.3299174","114.1930425","華岸酒吧餐廳 The China Coast Pub + Restaurant","KOWLOON TONG SCHOOL (PRIMARY SECTION)","九龍城區","/","九龍城沙浦道30-38號富豪東方酒店大堂","男女","酒店","B類餐廳","166","base","西式/無肉餐單/酒吧/酒店餐廳","","","11月24日 - 11月29日","往年慣例","","12月18日 - 12月20日","往年慣例","https://www.hk01.com/issue/828","https://www.hk01.com/issue/828","","","","九龍"
"22.3238199","114.2059295","Café 15","KOWLOON TONG SCHOOL (PRIMARY SECTION)","觀塘區","/","九龍灣宏光道15號君立酒店地下","男女","酒店","B類餐廳","167","base","西式/酒店餐廳","","","11月24日 - 11月29日","往年慣例","","12月18日 - 12月20日","往年慣例","https://www.hk01.com/issue/828","https://www.hk01.com/issue/828","","","","九龍"
"22.3230383484516","114.190612435341","8度餐廳 Café 8 Degrees","KOWLOON TONG SCHOOL (PRIMARY SECTION)","九龍城區","/","土瓜灣九龍城道199號8度海逸酒店地下","男女","酒店","C類餐廳","168","base","多國菜/自助餐/清真認證食品/酒店餐廳","","","11月24日 - 11月29日","往年慣例","","12月18日 - 12月20日","往年慣例","https://www.hk01.com/issue/828","https://www.hk01.com/issue/828","","","","九龍"
"22.3209728350539","114.162170477927","協奏坊西餐廳 Sonata Western Restaurant","KOWLOON TONG SCHOOL (PRIMARY SECTION)","旺角區","/","大角咀大角咀道86號九龍珀麗酒店2樓","男女","酒店","C類餐廳","169","base","多國菜/自助餐/酒店餐廳","","","11月24日 - 11月29日","往年慣例","","12月18日 - 12月20日","往年慣例","https://www.hk01.com/issue/828","https://www.hk01.com/issue/828","","","","九龍"
"22.3029016","114.1736144","基地 Base Bar & Restaurant","KOWLOON TONG SCHOOL (PRIMARY SECTION)","油尖區","/","尖沙咀山林道29-31號廣利樓地下A號舖","男女","酒店","D類餐廳","170","base","西式/多國菜/酒吧","","","11月24日 - 11月29日","往年慣例","","12月18日 - 12月20日","往年慣例","https://www.hk01.com/issue/828","https://www.hk01.com/issue/828","","","","九龍"
"22.3021759","114.1748541","蟹仙海鮮私房．蒸氣石碢 (環海大廈) Crab Fairy (Universal Mansion)","KOWLOON TONG SCHOOL (PRIMARY SECTION)","油尖區","/","尖沙咀天文台圍2號環海大廈2期地舖","男女","酒店","C類餐廳","171","base","粵菜/(廣東)/港式/海鮮/蒸氣火鍋/海鮮酒家/蟹店","","","11月24日 - 11月29日","往年慣例","","12月18日 - 12月20日","往年慣例","https://www.hk01.com/issue/828","https://www.hk01.com/issue/828","","","","九龍"
"22.3005420092589","114.179647564888","The Market","KOWLOON TONG SCHOOL (PRIMARY SECTION)","油尖區","/","尖沙咀科學館道17號唯港薈2樓","男女","酒店","D類餐廳","172","base","多國菜/海鮮/自助餐/酒店餐廳","","","11月24日 - 11月29日","往年慣例","","12月18日 - 12月20日","往年慣例","https://www.hk01.com/issue/828","https://www.hk01.com/issue/828","","","","九龍"
"22.2953603402635","114.172630906105","Morton's of Chicago","KOWLOON TONG SCHOOL (PRIMARY SECTION)","油尖區","/","尖沙咀彌敦道20號香港喜來登酒店4樓","男女","酒店","B類餐廳","173","base","美國菜/扒房/酒店餐廳/無翅餐廳","","","11月24日 - 11月29日","往年慣例","","12月18日 - 12月20日","往年慣例","https://www.hk01.com/issue/828","https://www.hk01.com/issue/828","","","","九龍"
"22.2978137122376","114.168755258572","Three on Canton","KOWLOON TONG SCHOOL (PRIMARY SECTION)","油尖區","/","尖沙咀廣東道13號海港城港威酒店3樓","男女","酒店","C類餐廳","174","base","多國菜/自助餐/酒店餐廳/咪嘥嘢食店/無翅餐廳","","","11月24日 - 11月29日","往年慣例","","12月18日 - 12月20日","往年慣例","https://www.hk01.com/issue/828","https://www.hk01.com/issue/828","","","","九龍"
"22.3005082596068","114.179502725601","GREEN","KOWLOON TONG SCHOOL (PRIMARY SECTION)","油尖區","/","尖沙咀科學館道17號唯港薈地下","男女","酒店","C類餐廳","175","base","西式/咖啡店/酒吧/酒店餐廳","","","11月24日 - 11月29日","往年慣例","","12月18日 - 12月20日","往年慣例","https://www.hk01.com/issue/828","https://www.hk01.com/issue/828","","","","九龍"
"22.3017741","114.1764025","Uptop Bistro and Bar","KOWLOON TONG SCHOOL (PRIMARY SECTION)","油尖區","/","尖沙咀漆咸道南117號珀薈酒店19樓","男女","酒店","B類餐廳","176","base","西式/酒/Fine/Dining/西式糕點//酒店餐廳","","","11月24日 - 11月29日","往年慣例","","12月18日 - 12月20日","往年慣例","https://www.hk01.com/issue/828","https://www.hk01.com/issue/828","","","","九龍"
"22.2976906261048","114.173770844936","Cafe, Hyatt Regency Tsim Sha Tsui","KOWLOON TONG SCHOOL (PRIMARY SECTION)","油尖區","/","尖沙咀河內道18號香港尖沙咀凱悅酒店大堂樓層","男女","酒店","D類餐廳","177","base","多國菜/自助餐/酒店餐廳/無翅餐廳","","","11月24日 - 11月29日","往年慣例","","12月18日 - 12月20日","往年慣例","https://www.hk01.com/issue/828","https://www.hk01.com/issue/828","","","","九龍"
"22.298705615987","114.177657365799","雅苑座 The Greenery","KOWLOON TONG SCHOOL (PRIMARY SECTION)","油尖區","/","尖沙咀麼地道69號帝苑酒店3樓","男女","酒店","D類餐廳","178","base","多國菜/自助餐/酒店餐廳","","","11月24日 - 11月29日","往年慣例","","12月18日 - 12月20日","往年慣例","https://www.hk01.com/issue/828","https://www.hk01.com/issue/828","","","","九龍"
"22.2951121712175","114.171826243401","半島酒店大堂茶座 The Lobby","KOWLOON TONG SCHOOL (PRIMARY SECTION)","油尖區","/","尖沙咀梳士巴利道22號香港半島酒店大堂","男女","酒店","C類餐廳","179","base","西式/麵包店/咖啡店/酒店餐廳","","","11月24日 - 11月29日","往年慣例","","12月18日 - 12月20日","往年慣例","https://www.hk01.com/issue/828","https://www.hk01.com/issue/828","","","","九龍"
"22.2970776579837","114.176884889603","Café Kool","KOWLOON TONG SCHOOL (PRIMARY SECTION)","油尖區","/","尖沙咀麼地道64號九龍香格里拉大酒店閣樓","男女","酒店","D類餐廳","180","base","多國菜/自助餐/酒店餐廳","","","11月24日 - 11月29日","往年慣例","","12月18日 - 12月20日","往年慣例","https://www.hk01.com/issue/828","https://www.hk01.com/issue/828","","","","九龍"
"22.3049655","114.1615932","Cafe 103","KOWLOON TONG SCHOOL (PRIMARY SECTION)","油尖區","/","尖沙咀柯士甸道西1號環球貿易廣場(ICC)香港麗思卡爾頓酒店103樓","男女","酒店","B類餐廳","181","base","西式/自助餐/咖啡店/酒店餐廳","","","11月24日 - 11月29日","往年慣例","","12月18日 - 12月20日","往年慣例","https://www.hk01.com/issue/828","https://www.hk01.com/issue/828","","","","九龍"
"22.2949636521897","114.17570516008","The Butterfly Room","KOWLOON TONG SCHOOL (PRIMARY SECTION)","油尖區","/","尖沙咀梳士巴利道18號香港瑰麗酒店2樓","男女","酒店","C類餐廳","182","base","西式/雪糕/乳酪/西式糕點//酒店餐廳","","","11月24日 - 11月29日","往年慣例","","12月18日 - 12月20日","往年慣例","https://www.hk01.com/issue/828","https://www.hk01.com/issue/828","","","","九龍"
"22.3001879160496","114.167609810829","柏景餐廳 Café on the PARK","KOWLOON TONG SCHOOL (PRIMARY SECTION)","油尖區","/","尖沙咀廣東道33號皇家太平洋酒店園景翼2樓","男女","酒店","D類餐廳","183","base","西式/自助餐/酒店餐廳/咪嘥嘢食店/無翅餐廳","","","11月24日 - 11月29日","往年慣例","","12月18日 - 12月20日","往年慣例","https://www.hk01.com/issue/828","https://www.hk01.com/issue/828","","","","九龍"
"22.2976856628109","114.173803031445","希戈餐廳 Hugo's","KOWLOON TONG SCHOOL (PRIMARY SECTION)","油尖區","/","尖沙咀河內道18號香港尖沙咀凱悅酒店大堂","男女","酒店","D類餐廳","184","base","法國菜/Fine/Dining/酒店餐廳","","","11月24日 - 11月29日","往年慣例","","12月18日 - 12月20日","往年慣例","https://www.hk01.com/issue/828","https://www.hk01.com/issue/828","","","","九龍"
"22.296392","114.169746","The Food Gallery","KOWLOON TONG SCHOOL (PRIMARY SECTION)","油尖區","/","尖沙咀北京道8號香港朗廷酒店大堂","男女","酒店","C類餐廳","185","base","西式/自助餐/酒店餐廳/無翅餐廳","","","11月24日 - 11月29日","往年慣例","","12月18日 - 12月20日","往年慣例","https://www.hk01.com/issue/828","https://www.hk01.com/issue/828","","","","九龍"
"22.296392","114.169746","唐閣 T'ang Court","KOWLOON TONG SCHOOL (PRIMARY SECTION)","油尖區","/","尖沙咀北京道8號香港朗廷酒店1樓及2樓","男女","酒店","未有相關資料","186","base","粵菜/(廣東)/海鮮/點心/中菜館/酒店餐廳","","","11月24日 - 11月29日","往年慣例","","12月18日 - 12月20日","往年慣例","https://www.hk01.com/issue/828","https://www.hk01.com/issue/828","","","","九龍"
"22.3033511479334","114.160265922546","天龍軒 Tin Lung Heen","KOWLOON TONG SCHOOL (PRIMARY SECTION)","油尖區","/","尖沙咀柯士甸道西1號環球貿易廣場(ICC)香港麗思卡爾頓酒店102樓","男女","酒店","C類餐廳","187","base","粵菜/(廣東)/點心/中菜館/酒店餐廳","","","11月24日 - 11月29日","往年慣例","","12月18日 - 12月20日","往年慣例","https://www.hk01.com/issue/828","https://www.hk01.com/issue/828","","","","九龍"
"22.3004758332936","114.179620742798","天外天 Above & Beyond","KOWLOON TONG SCHOOL (PRIMARY SECTION)","油尖區","/","尖沙咀科學館道17號唯港薈28樓","男女","酒店","B類餐廳","188","base","粵菜/(廣東)/點心/中菜館/酒店餐廳","","","11月24日 - 11月29日","往年慣例","","12月18日 - 12月20日","往年慣例","https://www.hk01.com/issue/828","https://www.hk01.com/issue/828","","","","九龍"
"22.300068","114.172473","Yamm","KOWLOON TONG SCHOOL (PRIMARY SECTION)","油尖區","/","尖沙咀彌敦道118-130號Mira Place, The Mira Hong Kong 地下大堂","男女","酒店","B類餐廳","189","base","多國菜/自助餐/酒店餐廳","","","11月24日 - 11月29日","往年慣例","","12月18日 - 12月20日","往年慣例","https://www.hk01.com/issue/828","https://www.hk01.com/issue/828","","","","九龍"
"22.2997876019713","114.175474047661","Park café","KOWLOON TONG SCHOOL (PRIMARY SECTION)","油尖區","/","尖沙咀漆咸道南61-65號香港百樂酒店4樓","男女","酒店","C類餐廳","190","base","西式/自助餐/咖啡店/酒店餐廳","","","11月24日 - 11月29日","往年慣例","","12月18日 - 12月20日","往年慣例","https://www.hk01.com/issue/828","https://www.hk01.com/issue/828","","","","九龍"
"22.2965887705506","114.169908463955","Bostonian Seafood & Grill","KOWLOON TONG SCHOOL (PRIMARY SECTION)","油尖區","/","尖沙咀北京道8號香港朗廷酒店低層大堂","男女","酒店","C類餐廳","191","base","多國菜/海鮮/酒店餐廳/蠔吧/無翅餐廳","","","11月24日 - 11月29日","往年慣例","","12月18日 - 12月20日","往年慣例","https://www.hk01.com/issue/828","https://www.hk01.com/issue/828","","","","九龍"
"22.2950249","114.1668799","Cucina","KOWLOON TONG SCHOOL (PRIMARY SECTION)","油尖區","/","尖沙咀廣東道3號海港城馬哥孛羅香港酒店6樓","男女","酒店","D類餐廳","192","base","意大利菜/酒店餐廳/無翅餐廳","","","11月24日 - 11月29日","往年慣例","","12月18日 - 12月20日","往年慣例","https://www.hk01.com/issue/828","https://www.hk01.com/issue/828","","","","九龍"
"22.2954546443854","114.171702861786","嘉麟樓 Spring Moon","KOWLOON TONG SCHOOL (PRIMARY SECTION)","油尖區","/","尖沙咀梳士巴利道22號香港半島酒店1樓","男女","酒店","C類餐廳","193","base","粵菜/(廣東)/海鮮/點心/中菜館/酒樓/酒店餐廳/少鹽少糖食店","","","11月24日 - 11月29日","往年慣例","","12月18日 - 12月20日","往年慣例","https://www.hk01.com/issue/828","https://www.hk01.com/issue/828","","","","九龍"
"22.3015669047378","114.174446761608","山景閣 Hillview Cafe","KOWLOON TONG SCHOOL (PRIMARY SECTION)","油尖區","/","尖沙咀天文台道13-17號仕德福山景酒店大堂","男女","酒店","B類餐廳","194","base","西式/自助餐/酒店餐廳","","","11月24日 - 11月29日","往年慣例","","12月18日 - 12月20日","往年慣例","https://www.hk01.com/issue/828","https://www.hk01.com/issue/828","","","","九龍"
"22.2970677313524","114.176884889603","香宮 Shang Palace","KOWLOON TONG SCHOOL (PRIMARY SECTION)","油尖區","/","尖沙咀麼地道64號九龍香格里拉大酒店地庫1層","男女","酒店","D類餐廳","195","base","粵菜/(廣東)/海鮮/點心/酒樓/酒店餐廳","","","11月24日 - 11月29日","往年慣例","","12月18日 - 12月20日","往年慣例","https://www.hk01.com/issue/828","https://www.hk01.com/issue/828","","","","九龍"
"22.303381","114.1602314","Café 100 by The Ritz-Carlton","KOWLOON TONG SCHOOL (PRIMARY SECTION)","油尖區","/","尖沙咀柯士甸道西1號環球貿易廣場(ICC)100樓天際100香港觀景台","男女","酒店","B類餐廳","196","base","西式/雪糕/乳酪/果汁/西式糕點//咖啡店/酒店餐廳","","","11月24日 - 11月29日","往年慣例","","12月18日 - 12月20日","往年慣例","https://www.hk01.com/issue/828","https://www.hk01.com/issue/828","","","","九龍"
"22.2991920143929","114.179320335388","海景咖啡廊 Café on M","KOWLOON TONG SCHOOL (PRIMARY SECTION)","油尖區","/","尖沙咀麼地道70號海景嘉福酒店M層","男女","酒店","B類餐廳","197","base","西式/多國菜/自助餐/酒店餐廳","","","11月24日 - 11月29日","往年慣例","","12月18日 - 12月20日","往年慣例","https://www.hk01.com/issue/828","https://www.hk01.com/issue/828","","","","九龍"
"22.2954596077585","114.17169213295","露台餐廳 The Verandah","KOWLOON TONG SCHOOL (PRIMARY SECTION)","油尖區","/","尖沙咀梳士巴利道22號香港半島酒店1樓","男女","酒店","C類餐廳","198","base","西式/自助餐/酒店餐廳","","","11月24日 - 11月29日","往年慣例","","12月18日 - 12月20日","往年慣例","https://www.hk01.com/issue/828","https://www.hk01.com/issue/828","","","","九龍"
"22.2949611704944","114.175713206707","Holt’s Café","KOWLOON TONG SCHOOL (PRIMARY SECTION)","油尖區","/","尖沙咀梳士巴利道18號香港瑰麗酒店2樓","男女","酒店","C類餐廳","199","base","多國菜/燒臘/點心/沙律/酒店餐廳","","","11月24日 - 11月29日","往年慣例","","12月18日 - 12月20日","往年慣例","https://www.hk01.com/issue/828","https://www.hk01.com/issue/828","","","","九龍"
"22.3039864223453","114.160308837891","Tosca di Angelo","KOWLOON TONG SCHOOL (PRIMARY SECTION)","油尖區","/","尖沙咀柯士甸道西1號環球貿易廣場(ICC)香港麗思卡爾頓酒店102樓","男女","酒店","C類餐廳","200","base","意大利菜/酒/Fine/Dining/酒店餐廳","","","11月24日 - 11月29日","往年慣例","","12月18日 - 12月20日","往年慣例","https://www.hk01.com/issue/828","https://www.hk01.com/issue/828","","","","九龍"
"22.2987205057593","114.177652001381","Sabatini 意大利餐廳 Sabatini Ristorante Italiano","KOWLOON TONG SCHOOL (PRIMARY SECTION)","油尖區","/","尖沙咀麼地道69號帝苑酒店3樓","男女","酒店","D類餐廳","201","base","意大利菜/自助餐/Fine/Dining/酒店餐廳","","","11月24日 - 11月29日","往年慣例","","12月18日 - 12月20日","往年慣例","https://www.hk01.com/issue/828","https://www.hk01.com/issue/828","","","","九龍"
"22.2958790121465","114.171898663044","倚窗閣 The Window Cafe","KOWLOON TONG SCHOOL (PRIMARY SECTION)","油尖區","/","尖沙咀彌敦道19-21號九龍酒店2樓","男女","酒店","B類餐廳","202","base","西式/自助餐/酒店餐廳","","","11月24日 - 11月29日","往年慣例","","12月18日 - 12月20日","往年慣例","https://www.hk01.com/issue/828","https://www.hk01.com/issue/828","","","","九龍"
"22.3047383","114.1604322","KITCHEN","KOWLOON TONG SCHOOL (PRIMARY SECTION)","油尖區","/","尖沙咀柯士甸道西1號港鐵九龍站香港W酒店6樓","男女","酒店","C類餐廳","203","base","多國菜/自助餐/酒店餐廳","","","11月24日 - 11月29日","往年慣例","","12月18日 - 12月20日","往年慣例","https://www.hk01.com/issue/828","https://www.hk01.com/issue/828","","","","九龍"
"22.2987205057593","114.177673459053","帝苑餅店 Fine Foods","KOWLOON TONG SCHOOL (PRIMARY SECTION)","油尖區","/","尖沙咀麼地道69號帝苑酒店大堂","男女","酒店","B類餐廳","204","base","西式/麵包店/甜品/糖水/酒店餐廳","","","11月24日 - 11月29日","往年慣例","","12月18日 - 12月20日","往年慣例","https://www.hk01.com/issue/828","https://www.hk01.com/issue/828","","","","九龍"
"22.2966607388588","114.169911146164","Main St. Deli","KOWLOON TONG SCHOOL (PRIMARY SECTION)","油尖區","/","尖沙咀北京道8號香港朗廷酒店低層大堂","男女","酒店","C類餐廳","205","base","美國菜/漢堡包/酒店餐廳/無翅餐廳","","","11月24日 - 11月29日","往年慣例","","12月18日 - 12月20日","往年慣例","https://www.hk01.com/issue/828","https://www.hk01.com/issue/828","","","","九龍"
"22.3040062746241","114.160416126251","大堂酒廊 The Lounge & Bar","KOWLOON TONG SCHOOL (PRIMARY SECTION)","油尖區","/","尖沙咀柯士甸道西1號環球貿易廣場(ICC)香港麗思卡爾頓酒店102樓","男女","酒店","B類餐廳","206","base","西式/酒吧/酒店餐廳","","","11月24日 - 11月29日","往年慣例","","12月18日 - 12月20日","往年慣例","https://www.hk01.com/issue/828","https://www.hk01.com/issue/828","","","","九龍"
"22.2968385655648","114.172791838646","Bistro on the Mile","KOWLOON TONG SCHOOL (PRIMARY SECTION)","油尖區","/","尖沙咀彌敦道50號金域假日酒店1樓","男女","酒店","B類餐廳","207","base","多國菜/自助餐/酒店餐廳","","","11月24日 - 11月29日","往年慣例","","12月18日 - 12月20日","往年慣例","https://www.hk01.com/issue/828","https://www.hk01.com/issue/828","","","","九龍"
"22.2968211939297","114.172767698765","龍苑中菜廳 Loong Yuen Cantonese Restaurant","KOWLOON TONG SCHOOL (PRIMARY SECTION)","油尖區","/","尖沙咀彌敦道50號金域假日酒店低層1樓","男女","酒店","D類餐廳","208","base","粵菜/(廣東)/海鮮/點心/中菜館/酒店餐廳","","","11月24日 - 11月29日","往年慣例","","12月18日 - 12月20日","往年慣例","https://www.hk01.com/issue/828","https://www.hk01.com/issue/828","","","","九龍"
"22.2952494397756","114.171842336655","吉地士 Gaddi's","KOWLOON TONG SCHOOL (PRIMARY SECTION)","油尖區","/","尖沙咀梳士巴利道22號香港半島酒店1樓","男女","酒店","C類餐廳","209","base","法國菜/酒/Fine/Dining/酒店餐廳","","","11月24日 - 11月29日","往年慣例","","12月18日 - 12月20日","往年慣例","https://www.hk01.com/issue/828","https://www.hk01.com/issue/828","","","","九龍"
"22.2976955893984","114.173805713654","凱悅軒 The Chinese Restaurant","KOWLOON TONG SCHOOL (PRIMARY SECTION)","油尖區","/","尖沙咀河內道18號香港尖沙咀凱悅酒店3樓","男女","酒店","D類餐廳","210","base","粵菜/(廣東)/點心/中菜館/酒店餐廳/無翅餐廳","","","11月24日 - 11月29日","往年慣例","","12月18日 - 12月20日","往年慣例","https://www.hk01.com/issue/828","https://www.hk01.com/issue/828","","","","九龍"
"22.2938763","114.1745836","HENRY","KOWLOON TONG SCHOOL (PRIMARY SECTION)","油尖區","/","尖沙咀梳士巴利道18號香港瑰麗酒店5樓","男女","酒店","C類餐廳","211","base","西式/美國菜/燒烤/扒房/酒店餐廳","","","11月24日 - 11月29日","往年慣例","","12月18日 - 12月20日","往年慣例","https://www.hk01.com/issue/828","https://www.hk01.com/issue/828","","","","九龍"
"22.3001581","114.1725878","WHISK","KOWLOON TONG SCHOOL (PRIMARY SECTION)","油尖區","/","尖沙咀彌敦道118-130號美麗華廣場The Mira Hong Kong 5樓","男女","酒店","C類餐廳","212","base","西式/多國菜/酒/酒店餐廳","","","11月24日 - 11月29日","往年慣例","","12月18日 - 12月20日","往年慣例","https://www.hk01.com/issue/828","https://www.hk01.com/issue/828","","","","九龍"
"22.2966607388588","114.169911146164","廷廊 Palm Court","KOWLOON TONG SCHOOL (PRIMARY SECTION)","油尖區","/","尖沙咀北京道8號香港朗廷酒店大堂","男女","酒店","C類餐廳","213","base","西式/甜品/糖水/咖啡店/酒店餐廳/無翅餐廳","","","11月24日 - 11月29日","往年慣例","","12月18日 - 12月20日","往年慣例","https://www.hk01.com/issue/828","https://www.hk01.com/issue/828","","","","九龍"
"22.295299926652","114.168561995029","馬哥孛羅咖啡廳 Cafe Marco","KOWLOON TONG SCHOOL (PRIMARY SECTION)","油尖區","/","尖沙咀廣東道3號海港城馬哥孛羅香港酒店1樓","男女","酒店","B類餐廳","214","base","西式/自助餐/酒店餐廳/咪嘥嘢食店","","","11月24日 - 11月29日","往年慣例","","12月18日 - 12月20日","往年慣例","https://www.hk01.com/issue/828","https://www.hk01.com/issue/828","","","","九龍"
"22.2954596077585","114.171713590622","Felix","KOWLOON TONG SCHOOL (PRIMARY SECTION)","油尖區","/","尖沙咀梳士巴利道22號香港半島酒店28樓","男女","酒店","C類餐廳","215","base","西式/Fine/Dining/酒吧/酒店餐廳","","","11月24日 - 11月29日","往年慣例","","12月18日 - 12月20日","往年慣例","https://www.hk01.com/issue/828","https://www.hk01.com/issue/828","","","","九龍"
"22.299427","114.179761","Café East","KOWLOON TONG SCHOOL (PRIMARY SECTION)","油尖區","/","尖沙咀麼地道72號千禧新世界香港酒店1樓","男女","酒店","B類餐廳","216","base","西式/自助餐/酒店餐廳","","","11月24日 - 11月29日","往年慣例","","12月18日 - 12月20日","往年慣例","https://www.hk01.com/issue/828","https://www.hk01.com/issue/828","","","","九龍"
"22.2935602516031","114.174039065838","欣圖軒 Yan Toh Heen","KOWLOON TONG SCHOOL (PRIMARY SECTION)","油尖區","/","尖沙咀梳士巴利道18號香港洲際酒店地下","男女","酒店","B類餐廳","217","base","粵菜/(廣東)/點心/中菜館/酒店餐廳","","","11月24日 - 11月29日","往年慣例","","12月18日 - 12月20日","往年慣例","https://www.hk01.com/issue/828","https://www.hk01.com/issue/828","","","","九龍"
"22.299092","114.17946","Theo Mistral by Theo Randall","KOWLOON TONG SCHOOL (PRIMARY SECTION)","油尖區","/","尖沙咀麼地道70號海景嘉福酒店B2層","男女","酒店","B類餐廳","218","base","意大利菜/酒店餐廳","","","11月24日 - 11月29日","往年慣例","","12月18日 - 12月20日","往年慣例","https://www.hk01.com/issue/828","https://www.hk01.com/issue/828","","","","九龍"
"22.2970776579837","114.176906347275","Angelini意大利餐廳 Angelini","KOWLOON TONG SCHOOL (PRIMARY SECTION)","油尖區","/","尖沙咀麼地道64號九龍香格里拉大酒店閣樓","男女","酒店","D類餐廳","219","base","意大利菜/自助餐/酒店餐廳","","","11月24日 - 11月29日","往年慣例","","12月18日 - 12月20日","往年慣例","https://www.hk01.com/issue/828","https://www.hk01.com/issue/828","","","","九龍"
"22.3034608","114.1602184","OZONE","KOWLOON TONG SCHOOL (PRIMARY SECTION)","油尖區","/","尖沙咀柯士甸道西1號環球貿易廣場(ICC)香港麗思卡爾頓酒店118樓","男女","酒店","C類餐廳","220","base","西式/多國菜/酒吧/酒店餐廳","","","11月24日 - 11月29日","往年慣例","","12月18日 - 12月20日","往年慣例","https://www.hk01.com/issue/828","https://www.hk01.com/issue/828","","","","九龍"
"22.2949781597494","114.175806641579","CHAAT","KOWLOON TONG SCHOOL (PRIMARY SECTION)","油尖區","/","尖沙咀梳士巴利道18號香港瑰麗酒店5樓","男女","酒店","C類餐廳","221","base","印度菜/酒店餐廳","","","11月24日 - 11月29日","往年慣例","","12月18日 - 12月20日","往年慣例","https://www.hk01.com/issue/828","https://www.hk01.com/issue/828","","","","九龍"
"22.2953107064896","114.171702861786","瑞樵閣 Chesa","KOWLOON TONG SCHOOL (PRIMARY SECTION)","油尖區","/","尖沙咀梳士巴利道22號香港半島酒店1樓","男女","酒店","C類餐廳","222","base","瑞士菜/火鍋/酒/酒店餐廳","","","11月24日 - 11月29日","往年慣例","","12月18日 - 12月20日","往年慣例","https://www.hk01.com/issue/828","https://www.hk01.com/issue/828","","","","九龍"
"22.3049382","114.160669","星宴中餐廳 Sing Yin Cantonese Dining","KOWLOON TONG SCHOOL (PRIMARY SECTION)","油尖區","/","尖沙咀柯士甸道西1號港鐵九龍站香港W酒店1樓","男女","酒店","D類餐廳","223","base","粵菜/(廣東)/點心/中菜館/酒店餐廳","","","11月24日 - 11月29日","往年慣例","","12月18日 - 12月20日","往年慣例","https://www.hk01.com/issue/828","https://www.hk01.com/issue/828","","","","九龍"
"22.2968336022407","114.172756969929","Osteria 意大利餐廳 Osteria Ristorante Italiano","KOWLOON TONG SCHOOL (PRIMARY SECTION)","油尖區","/","尖沙咀彌敦道50號金域假日酒店閣樓","男女","酒店","B類餐廳","224","base","意大利菜/薄餅/酒店餐廳","","","11月24日 - 11月29日","往年慣例","","12月18日 - 12月20日","往年慣例","https://www.hk01.com/issue/828","https://www.hk01.com/issue/828","","","","九龍"
"22.2952296250288","114.172653704882","咖啡廳 The Cafe","KOWLOON TONG SCHOOL (PRIMARY SECTION)","油尖區","/","尖沙咀彌敦道20號香港喜來登酒店2樓","男女","酒店","B類餐廳","225","base","西式/多國菜/自助餐/無肉餐單/酒店餐廳/無翅餐廳","","","11月24日 - 11月29日","往年慣例","","12月18日 - 12月20日","往年慣例","https://www.hk01.com/issue/828","https://www.hk01.com/issue/828","","","","九龍"
"22.29536530364","114.172625541687","雲海日本料理 Unkai Japanese Cuisine","KOWLOON TONG SCHOOL (PRIMARY SECTION)","油尖區","/","尖沙咀彌敦道20號香港喜來登酒店3樓","男女","酒店","B類餐廳","226","base","日本菜/鐵板燒/壽司/刺身/酒店餐廳/無翅餐廳","","","11月24日 - 11月29日","往年慣例","","12月18日 - 12月20日","往年慣例","https://www.hk01.com/issue/828","https://www.hk01.com/issue/828","","","","九龍"
"22.3001548797123","114.168162345886","堤岸酒吧及餐廳 Pierside Bar & Restaurant","KOWLOON TONG SCHOOL (PRIMARY SECTION)","油尖區","/","尖沙咀廣東道33號皇家太平洋酒店海景翼大堂高座","男女","酒店","D類餐廳","227","base","多國菜/自助餐/酒吧/酒店餐廳/咪嘥嘢食店/無翅餐廳","","","11月24日 - 11月29日","往年慣例","","12月18日 - 12月20日","往年慣例","https://www.hk01.com/issue/828","https://www.hk01.com/issue/828","","","","九龍"
"22.2953702670162","114.172620177269","天寶閣 Celestial Court Chinese Restaurant","KOWLOON TONG SCHOOL (PRIMARY SECTION)","油尖區","/","尖沙咀彌敦道20號香港喜來登酒店2樓","男女","酒店","D類餐廳","228","base","粵菜/(廣東)/山珍海味/點心/中式包點/中菜館/酒店餐廳/無翅餐廳","","","11月24日 - 11月29日","往年慣例","","12月18日 - 12月20日","往年慣例","https://www.hk01.com/issue/828","https://www.hk01.com/issue/828","","","","九龍"
"22.294958688799","114.175710524498","彤福軒 The Legacy House","KOWLOON TONG SCHOOL (PRIMARY SECTION)","油尖區","/","尖沙咀梳士巴利道18號香港瑰麗酒店5樓","男女","酒店","C類餐廳","229","base","粵菜/(廣東)/順德菜/點心/中菜館/酒店餐廳","","","11月24日 - 11月29日","往年慣例","","12月18日 - 12月20日","往年慣例","https://www.hk01.com/issue/828","https://www.hk01.com/issue/828","","","","九龍"
"22.299427","114.179761","The Lounge","KOWLOON TONG SCHOOL (PRIMARY SECTION)","油尖區","/","尖沙咀麼地道72號千禧新世界香港酒店M樓","男女","酒店","B類餐廳","230","base","多國菜/咖啡店/酒吧/酒店餐廳/茶館","","","11月24日 - 11月29日","往年慣例","","12月18日 - 12月20日","往年慣例","https://www.hk01.com/issue/828","https://www.hk01.com/issue/828","","","","九龍"
"22.297370493292","114.176895618439","九龍香格里拉大酒店大堂酒廊 Lobby Lounge (Kowloon Shangri-La)","KOWLOON TONG SCHOOL (PRIMARY SECTION)","油尖區","/","尖沙咀麼地道64號九龍香格里拉大酒店大堂","男女","酒店","D類餐廳","231","base","西式/自助餐/酒店餐廳","","","11月24日 - 11月29日","往年慣例","","12月18日 - 12月20日","往年慣例","https://www.hk01.com/issue/828","https://www.hk01.com/issue/828","","","","九龍"
"22.304924398163","114.160619994968","WOOBAR","KOWLOON TONG SCHOOL (PRIMARY SECTION)","油尖區","/","尖沙咀柯士甸道西1號港鐵九龍站香港W酒店6樓","男女","酒店","D類餐廳","232","base","西式/酒/酒吧/酒店餐廳","","","11月24日 - 11月29日","往年慣例","","12月18日 - 12月20日","往年慣例","https://www.hk01.com/issue/828","https://www.hk01.com/issue/828","","","","九龍"
"22.2953752303923","114.172625541687","視佳廊 Sky Lounge","KOWLOON TONG SCHOOL (PRIMARY SECTION)","油尖區","/","尖沙咀彌敦道20號香港喜來登酒店18樓","男女","酒店","B類餐廳","233","base","西式/麵包店/酒/海鮮/酒吧/酒店餐廳/無翅餐廳","","","11月24日 - 11月29日","往年慣例","","12月18日 - 12月20日","往年慣例","https://www.hk01.com/issue/828","https://www.hk01.com/issue/828","","","","九龍"
"22.2940599295663","114.174122214317","The Commune","KOWLOON TONG SCHOOL (PRIMARY SECTION)","油尖區","/","尖沙咀梳士巴利道18號K11 ARTUS10樓","男女","酒店","B類餐廳","234","base","多國菜/酒/酒吧/酒店餐廳","","","11月24日 - 11月29日","往年慣例","","12月18日 - 12月20日","往年慣例","https://www.hk01.com/issue/828","https://www.hk01.com/issue/828","","","","九龍"
"22.2953752303923","114.172625541687","蠔酒吧 Oyster & Wine Bar","KOWLOON TONG SCHOOL (PRIMARY SECTION)","油尖區","/","尖沙咀彌敦道20號香港喜來登酒店18樓","男女","酒店","C類餐廳","235","base","西式/酒/海鮮/Fine/Dining/酒店餐廳/蠔吧/無翅餐廳","","","11月24日 - 11月29日","往年慣例","","12月18日 - 12月20日","往年慣例","https://www.hk01.com/issue/828","https://www.hk01.com/issue/828","","","","九龍"
"22.2991870511524","114.179331064224","海景軒 Hoi King Heen","KOWLOON TONG SCHOOL (PRIMARY SECTION)","油尖區","/","尖沙咀麼地道70號海景嘉福酒店B2層","男女","酒店","C類餐廳","236","base","粵菜/(廣東)/點心/中菜館/酒店餐廳","","","11月24日 - 11月29日","往年慣例","","12月18日 - 12月20日","往年慣例","https://www.hk01.com/issue/828","https://www.hk01.com/issue/828","","","","九龍"
"22.3001648061243","114.168156981468","沙嗲軒 (中港城) Satay Inn (China Hong Kong City)","KOWLOON TONG SCHOOL (PRIMARY SECTION)","油尖區","/","尖沙咀廣東道33號中港城平台1座3號舖","男女","酒店","D類餐廳","237","base","新加坡菜/咖喱/酒店餐廳/咪嘥嘢食店","","","11月24日 - 11月29日","往年慣例","","12月18日 - 12月20日","往年慣例","https://www.hk01.com/issue/828","https://www.hk01.com/issue/828","","","","九龍"
"22.2984956","114.177589","J's Bar Bistro","KOWLOON TONG SCHOOL (PRIMARY SECTION)","油尖區","/","尖沙咀麽地道69號帝苑酒店2樓","男女","酒店","D類餐廳","238","base","多國菜/酒吧/酒店餐廳","","","11月24日 - 11月29日","往年慣例","","12月18日 - 12月20日","往年慣例","https://www.hk01.com/issue/828","https://www.hk01.com/issue/828","","","","九龍"
"22.2954695345041","114.168537855148","西村日本料理 Nishimura Restaurant","KOWLOON TONG SCHOOL (PRIMARY SECTION)","油尖區","/","尖沙咀廣東道3-27號海港城馬哥孛羅香港酒店6樓602室","男女","酒店","B類餐廳","239","base","日本菜/壽司/刺身/酒店餐廳/無翅餐廳","","","11月24日 - 11月29日","往年慣例","","12月18日 - 12月20日","往年慣例","https://www.hk01.com/issue/828","https://www.hk01.com/issue/828","","","","九龍"
"22.299427","114.179761","La Table French Brasserie","KOWLOON TONG SCHOOL (PRIMARY SECTION)","油尖區","/","尖沙咀麼地道72號千禧新世界香港酒店1樓","男女","酒店","B類餐廳","240","base","法國菜/西式/海鮮/Fine/Dining/扒房/酒店餐廳","","","11月24日 - 11月29日","往年慣例","","12月18日 - 12月20日","往年慣例","https://www.hk01.com/issue/828","https://www.hk01.com/issue/828","","","","九龍"
"22.2970776579837","114.176906347275","灘萬日本料理 (九龍香格里拉大酒店) Nadaman Japanese Restaurant (Kowloon Shangri-la Hotel, Hong Kong)","KOWLOON TONG SCHOOL (PRIMARY SECTION)","油尖區","/","尖沙咀麼地道64號九龍香格里拉大酒店地下2層","男女","酒店","D類餐廳","241","base","日本菜/壽司/刺身/Fine/Dining/酒店餐廳","","","11月24日 - 11月29日","往年慣例","","12月18日 - 12月20日","往年慣例","https://www.hk01.com/issue/828","https://www.hk01.com/issue/828","","","","九龍"
"22.298715542502","114.177652001381","Le Soleil","KOWLOON TONG SCHOOL (PRIMARY SECTION)","油尖區","/","尖沙咀麼地道69號帝苑酒店3樓","男女","酒店","D類餐廳","242","base","越南菜/無肉餐單/酒店餐廳","","","11月24日 - 11月29日","往年慣例","","12月18日 - 12月20日","往年慣例","https://www.hk01.com/issue/828","https://www.hk01.com/issue/828","","","","九龍"
"22.298894","114.178004","雅廊咖啡室 Café Allegro","KOWLOON TONG SCHOOL (PRIMARY SECTION)","油尖區","/","尖沙咀麼地道71號富豪九龍酒店地庫1樓","男女","酒店","C類餐廳","243","base","西式/自助餐/無肉餐單/酒店餐廳/咪嘥嘢食店","","","11月24日 - 11月29日","往年慣例","","12月18日 - 12月20日","往年慣例","https://www.hk01.com/issue/828","https://www.hk01.com/issue/828","","","","九龍"
"22.299427","114.179761","桃里 Tao Li","KOWLOON TONG SCHOOL (PRIMARY SECTION)","油尖區","/","尖沙咀麼地道72號千禧新世界香港酒店2樓","男女","酒店","B類餐廳","244","base","粵菜/(廣東)/點心/中菜館/酒樓/酒店餐廳","","","11月24日 - 11月29日","往年慣例","","12月18日 - 12月20日","往年慣例","https://www.hk01.com/issue/828","https://www.hk01.com/issue/828","","","","九龍"
"22.2954744978767","114.171724319458","今佐日本料理 Imasa","KOWLOON TONG SCHOOL (PRIMARY SECTION)","油尖區","/","尖沙咀梳士巴利道22號香港半島酒店1樓","男女","酒店","C類餐廳","245","base","日本菜/自助餐/壽司/刺身/酒店餐廳","","","11月24日 - 11月29日","往年慣例","","12月18日 - 12月20日","往年慣例","https://www.hk01.com/issue/828","https://www.hk01.com/issue/828","","","","九龍"
"22.294958688799","114.175710524498","Asaya Kitchen","KOWLOON TONG SCHOOL (PRIMARY SECTION)","油尖區","/","尖沙咀梳士巴利道18號香港瑰麗酒店6樓","男女","酒店","C類餐廳","246","base","西式/酒店餐廳","","","11月24日 - 11月29日","往年慣例","","12月18日 - 12月20日","往年慣例","https://www.hk01.com/issue/828","https://www.hk01.com/issue/828","","","","九龍"
"22.2949239450592","114.17570516008","DarkSide","KOWLOON TONG SCHOOL (PRIMARY SECTION)","油尖區","/","尖沙咀梳士巴利道18號香港瑰麗酒店2樓","男女","酒店","D類餐廳","247","base","西式/酒/酒吧/酒店餐廳","","","11月24日 - 11月29日","往年慣例","","12月18日 - 12月20日","往年慣例","https://www.hk01.com/issue/828","https://www.hk01.com/issue/828","","","","九龍"
"22.2958790121465","114.171901345253","龍逸軒 Loong Yat Heen","KOWLOON TONG SCHOOL (PRIMARY SECTION)","油尖區","/","尖沙咀彌敦道19-21號九龍酒店2樓","男女","酒店","B類餐廳","248","base","粵菜/(廣東)/點心/酒樓/酒店餐廳","","","11月24日 - 11月29日","往年慣例","","12月18日 - 12月20日","往年慣例","https://www.hk01.com/issue/828","https://www.hk01.com/issue/828","","","","九龍"
"22.298894","114.178004","Mezzo","KOWLOON TONG SCHOOL (PRIMARY SECTION)","油尖區","/","尖沙咀麼地道71號富豪九龍酒店1樓","男女","酒店","C類餐廳","249","base","意大利菜/西式/薄餅/酒店餐廳","","","11月24日 - 11月29日","往年慣例","","12月18日 - 12月20日","往年慣例","https://www.hk01.com/issue/828","https://www.hk01.com/issue/828","","","","九龍"
"22.2987105792446","114.177662730217","帝苑軒 Royal Garden Chinese Restaurant","KOWLOON TONG SCHOOL (PRIMARY SECTION)","油尖區","/","尖沙咀麼地道69號帝苑酒店B2層","男女","酒店","D類餐廳","250","base","粵菜/(廣東)/點心/酒樓/酒店餐廳","","","11月24日 - 11月29日","往年慣例","","12月18日 - 12月20日","往年慣例","https://www.hk01.com/issue/828","https://www.hk01.com/issue/828","","","","九龍"
"22.2947487","114.1710368","再臨閣 The Haven","KOWLOON TONG SCHOOL (PRIMARY SECTION)","油尖區","/","尖沙咀梳士巴利道41號香港基督教青年會南座4樓","男女","酒店","B類餐廳","251","base","多國菜/自助餐/酒店餐廳","","","11月24日 - 11月29日","往年慣例","","12月18日 - 12月20日","往年慣例","https://www.hk01.com/issue/828","https://www.hk01.com/issue/828","","","","九龍"
"22.298894","114.178004","富豪軒 Regal Court","KOWLOON TONG SCHOOL (PRIMARY SECTION)","油尖區","/","尖沙咀麼地道71號富豪九龍酒店2樓","男女","酒店","D類餐廳","252","base","粵菜/(廣東)/無肉餐單/中菜館/酒店餐廳","","","11月24日 - 11月29日","往年慣例","","12月18日 - 12月20日","往年慣例","https://www.hk01.com/issue/828","https://www.hk01.com/issue/828","","","","九龍"
"22.298715542502","114.177668094635","東來順 Dong Lai Shun","KOWLOON TONG SCHOOL (PRIMARY SECTION)","油尖區","/","尖沙咀麼地道69號帝苑酒店B2層","男女","酒店","D類餐廳","253","base","京菜/(官府菜)/火鍋/海鮮/中菜館/酒店餐廳/少鹽少糖食店","","","11月24日 - 11月29日","往年慣例","","12月18日 - 12月20日","往年慣例","https://www.hk01.com/issue/828","https://www.hk01.com/issue/828","","","","九龍"
"22.2996138891899","114.179701209068","嵯峨野 Sagano","KOWLOON TONG SCHOOL (PRIMARY SECTION)","油尖區","/","尖沙咀麼地道72號千禧新世界香港酒店1樓","男女","酒店","B類餐廳","254","base","日本菜/自助餐/壽司/刺身/酒店餐廳","","","11月24日 - 11月29日","往年慣例","","12月18日 - 12月20日","往年慣例","https://www.hk01.com/issue/828","https://www.hk01.com/issue/828","","","","九龍"
"22.2987105792446","114.177668094635","四季菊日本餐廳 Shikigiku Japanese Restaurant","KOWLOON TONG SCHOOL (PRIMARY SECTION)","油尖區","/","尖沙咀麼地道69號帝苑酒店1樓","男女","酒店","D類餐廳","255","base","日本菜/鐵板燒/壽司/刺身/Fine/Dining/酒店餐廳","","","11月24日 - 11月29日","往年慣例","","12月18日 - 12月20日","往年慣例","https://www.hk01.com/issue/828","https://www.hk01.com/issue/828","","","","九龍"
"22.3001581","114.1725878","Vibes","KOWLOON TONG SCHOOL (PRIMARY SECTION)","油尖區","/","尖沙咀彌敦道118-130號美麗華廣場The Mira Hong Kong 5樓","男女","酒店","B類餐廳","256","base","西式/酒吧/酒店餐廳","","","11月24日 - 11月29日","往年慣例","","12月18日 - 12月20日","往年慣例","https://www.hk01.com/issue/828","https://www.hk01.com/issue/828","","","","九龍"
"22.3024983205672","114.169506132603","園林閣咖啡室 Cafe by the Park","KOWLOON TONG SCHOOL (PRIMARY SECTION)","油尖區","/","尖沙咀柯士甸道8號龍堡國際閣樓","男女","酒店","B類餐廳","257","base","西式/自助餐/酒店餐廳","","","11月24日 - 11月29日","往年慣例","","12月18日 - 12月20日","往年慣例","https://www.hk01.com/issue/828","https://www.hk01.com/issue/828","","","","九龍"
"22.2976831811639","114.173805713654","請請吧 Chin Chin Bar","KOWLOON TONG SCHOOL (PRIMARY SECTION)","油尖區","/","尖沙咀河內道18號香港尖沙咀凱悅酒店3樓","男女","酒店","D類餐廳","258","base","西式/酒/酒吧/酒店餐廳","","","11月24日 - 11月29日","往年慣例","","12月18日 - 12月20日","往年慣例","https://www.hk01.com/issue/828","https://www.hk01.com/issue/828","","","","九龍"
"22.299604","114.1787697","Avenue75","KOWLOON TONG SCHOOL (PRIMARY SECTION)","油尖區","/","尖沙咀麼地道75號南洋中心地下36-41號舖","男女","酒店","D類餐廳","259","base","多國菜/酒店餐廳","","","11月24日 - 11月29日","往年慣例","","12月18日 - 12月20日","往年慣例","https://www.hk01.com/issue/828","https://www.hk01.com/issue/828","","","","九龍"
"22.2954447176388","114.168918728828","馬哥孛羅香港酒店大堂酒廊 Lobby Lounge","KOWLOON TONG SCHOOL (PRIMARY SECTION)","油尖區","/","尖沙咀廣東道3號海港城馬哥孛羅香港酒店大堂","男女","酒店","D類餐廳","260","base","西式/自助餐/酒吧/酒店餐廳/無翅餐廳","","","11月24日 - 11月29日","往年慣例","","12月18日 - 12月20日","往年慣例","https://www.hk01.com/issue/828","https://www.hk01.com/issue/828","","","","九龍"
"22.2972595943995","114.177008271217","Tapas Bar","KOWLOON TONG SCHOOL (PRIMARY SECTION)","油尖區","/","尖沙咀麼地道64號九龍香格里拉大酒店大堂","男女","酒店","D類餐廳","261","base","西班牙菜/酒吧/酒店餐廳","","","11月24日 - 11月29日","往年慣例","","12月18日 - 12月20日","往年慣例","https://www.hk01.com/issue/828","https://www.hk01.com/issue/828","","","","九龍"
"22.3007190297023","114.179685115814","唯港薈Silverbox 宴會廳 Hotel ICON Silverbox Ballroom","KOWLOON TONG SCHOOL (PRIMARY SECTION)","油尖區","/","尖沙咀科學館道17號唯港薈1樓","男女","酒店","B類餐廳","262","base","多國菜/自助餐/西式糕點//酒店餐廳","","","11月24日 - 11月29日","往年慣例","","12月18日 - 12月20日","往年慣例","https://www.hk01.com/issue/828","https://www.hk01.com/issue/828","","","","九龍"
"22.295083","114.170852","港青咖啡座 Mall Cafe","KOWLOON TONG SCHOOL (PRIMARY SECTION)","油尖區","/","尖沙咀梳士巴利道41號香港基督教青年會地鋪","男女","酒店","B類餐廳","263","base","西式/多國菜/漢堡包/沙律/咖啡店/酒店餐廳","","","11月24日 - 11月29日","往年慣例","","12月18日 - 12月20日","往年慣例","https://www.hk01.com/issue/828","https://www.hk01.com/issue/828","","","","九龍"
"22.3034032","114.1601917","香港麗思卡爾頓酒店宴會廳 Ballroom, The Ritz-Carlton HK","KOWLOON TONG SCHOOL (PRIMARY SECTION)","油尖區","/","尖沙咀柯士甸道西1號環球貿易廣場(ICC)香港麗思卡爾頓酒店","男女","酒店","B類餐廳","264","base","多國菜/酒店餐廳","","","11月24日 - 11月29日","往年慣例","","12月18日 - 12月20日","往年慣例","https://www.hk01.com/issue/828","https://www.hk01.com/issue/828","","","","九龍"
"22.3006611258266","114.173805713654","君怡酒店咖啡屋 The Kimberley Hotel Coffee House","KOWLOON TONG SCHOOL (PRIMARY SECTION)","油尖區","/","尖沙咀金巴利道28號君怡酒店大堂","男女","酒店","B類餐廳","265","base","西式/自助餐/酒店餐廳","","","11月24日 - 11月29日","往年慣例","","12月18日 - 12月20日","往年慣例","https://www.hk01.com/issue/828","https://www.hk01.com/issue/828","","","","九龍"
"22.299427","114.179761","千禧新世界香港酒店大宴會廳 New World Millennium Hong Kong Hotel Grand Ballroom","KOWLOON TONG SCHOOL (PRIMARY SECTION)","油尖區","/","尖沙咀麼地道72號千禧新世界香港酒店2樓","男女","酒店","B類餐廳","266","base","多國菜/自助餐/酒店餐廳","","","11月24日 - 11月29日","往年慣例","","12月18日 - 12月20日","往年慣例","https://www.hk01.com/issue/828","https://www.hk01.com/issue/828","","","","九龍"
"22.3002433","114.1759026","意粉廚房 Pasta Kitchen by Chef Gatto","KOWLOON TONG SCHOOL (PRIMARY SECTION)","油尖區","/","尖沙咀漆咸道南73-75號最佳盛品酒店尖沙咀地庫","男女","酒店","B類餐廳","267","base","意大利菜/西式/湯品/沙律/酒店餐廳","","","11月24日 - 11月29日","往年慣例","","12月18日 - 12月20日","往年慣例","https://www.hk01.com/issue/828","https://www.hk01.com/issue/828","","","","九龍"
"22.3001648061243","114.168167710304","柏景餅店 Park Deli","KOWLOON TONG SCHOOL (PRIMARY SECTION)","油尖區","/","尖沙咀廣東道33號皇家太平洋酒店園景翼2樓","男女","酒店","B類餐廳","268","base","西式/甜品/糖水/酒店餐廳/無翅餐廳","","","11月24日 - 11月29日","往年慣例","","12月18日 - 12月20日","往年慣例","https://www.hk01.com/issue/828","https://www.hk01.com/issue/828","","","","九龍"
"22.2990480803472","114.17931497097","洲際會所 Club InterContinental","KOWLOON TONG SCHOOL (PRIMARY SECTION)","油尖區","/","尖沙咀麼地道70號海景嘉福酒店","男女","酒店","B類餐廳","269","base","西式/酒店餐廳","","","11月24日 - 11月29日","往年慣例","","12月18日 - 12月20日","往年慣例","https://www.hk01.com/issue/828","https://www.hk01.com/issue/828","","","","九龍"
"22.2954596077585","114.171708226204","池畔餐廳 The Pool Terrace","KOWLOON TONG SCHOOL (PRIMARY SECTION)","油尖區","/","尖沙咀梳士巴利道22號香港半島酒店8樓","男女","酒店","B類餐廳","270","base","西式/酒店餐廳/無翅餐廳","","","11月24日 - 11月29日","往年慣例","","12月18日 - 12月20日","往年慣例","https://www.hk01.com/issue/828","https://www.hk01.com/issue/828","","","","九龍"
"22.2958814938255","114.171895980835","中間道酒吧 The Middle Row Bar","KOWLOON TONG SCHOOL (PRIMARY SECTION)","油尖區","/","尖沙咀彌敦道19-21號九龍酒店2樓","男女","酒店","B類餐廳","271","base","西式/自助餐/酒吧/酒店餐廳","","","11月24日 - 11月29日","往年慣例","","12月18日 - 12月20日","往年慣例","https://www.hk01.com/issue/828","https://www.hk01.com/issue/828","","","","九龍"
"22.299427","114.179761","Residence Lounge & Bar","KOWLOON TONG SCHOOL (PRIMARY SECTION)","油尖區","/","尖沙咀麼地道72號千禧新世界香港酒店15樓","男女","酒店","B類餐廳","272","base","多國菜/酒/海鮮/酒店餐廳","","","11月24日 - 11月29日","往年慣例","","12月18日 - 12月20日","往年慣例","https://www.hk01.com/issue/828","https://www.hk01.com/issue/828","","","","九龍"
"22.2954596077585","114.171702861786","半島酒店利士廳 Salisbury Room","KOWLOON TONG SCHOOL (PRIMARY SECTION)","油尖區","/","尖沙咀梳士巴利道22號香港半島酒店2樓","男女","酒店","B類餐廳","273","base","粵菜/(廣東)/酒店餐廳","","","11月24日 - 11月29日","往年慣例","","12月18日 - 12月20日","往年慣例","https://www.hk01.com/issue/828","https://www.hk01.com/issue/828","","","","九龍"
"22.3047473984982","114.160491228104","WET DECK","KOWLOON TONG SCHOOL (PRIMARY SECTION)","油尖區","/","尖沙咀柯士甸道西1號港鐵九龍站香港W酒店76樓","男女","酒店","C類餐廳","274","base","西式/酒吧/酒店餐廳","","","11月24日 - 11月29日","往年慣例","","12月18日 - 12月20日","往年慣例","https://www.hk01.com/issue/828","https://www.hk01.com/issue/828","","","","九龍"
"22.29707","114.177063","美食店 Deli Kool","KOWLOON TONG SCHOOL (PRIMARY SECTION)","油尖區","/","尖沙咀麼地道64號九龍香格里拉大酒店閣樓","男女","酒店","B類餐廳","275","base","多國菜/麵包店/酒店餐廳","","","11月24日 - 11月29日","往年慣例","","12月18日 - 12月20日","往年慣例","https://www.hk01.com/issue/828","https://www.hk01.com/issue/828","","","","九龍"
"22.2968923090472","114.172947406769","夏利吧 Hari's at Golden Mile","KOWLOON TONG SCHOOL (PRIMARY SECTION)","油尖區","/","尖沙咀彌敦道50號金域假日酒店閣樓","男女","酒店","B類餐廳","276","base","西式/酒吧/酒店餐廳","","","11月24日 - 11月29日","往年慣例","","12月18日 - 12月20日","往年慣例","https://www.hk01.com/issue/828","https://www.hk01.com/issue/828","","","","九龍"
"22.296392","114.169746","Artesian","KOWLOON TONG SCHOOL (PRIMARY SECTION)","油尖區","/","尖沙咀北京道8號香港朗廷酒店大堂","男女","酒店","C類餐廳","277","base","西式/多國菜/酒吧/酒店餐廳/無翅餐廳","","","11月24日 - 11月29日","往年慣例","","12月18日 - 12月20日","往年慣例","https://www.hk01.com/issue/828","https://www.hk01.com/issue/828","","","","九龍"
"22.298894","114.178004","V Bar & Lounge","KOWLOON TONG SCHOOL (PRIMARY SECTION)","油尖區","/","尖沙咀麼地道71號富豪九龍酒店地下","男女","酒店","C類餐廳","278","base","西式/酒吧/酒店餐廳","","","11月24日 - 11月29日","往年慣例","","12月18日 - 12月20日","往年慣例","https://www.hk01.com/issue/828","https://www.hk01.com/issue/828","","","","九龍"
"22.302736","114.169398","龍堡廊 Flamingo Lounge","KOWLOON TONG SCHOOL (PRIMARY SECTION)","油尖區","/","尖沙咀柯士甸道8號龍堡國際閣樓","男女","酒店","B類餐廳","279","base","港式/西式/酒/酒吧/酒店餐廳","","","11月24日 - 11月29日","往年慣例","","12月18日 - 12月20日","往年慣例","https://www.hk01.com/issue/828","https://www.hk01.com/issue/828","","","","九龍"
"22.2997587","114.1737769","The Pearl","KOWLOON TONG SCHOOL (PRIMARY SECTION)","油尖區","/","尖沙咀加連威老道20-22號瑞生尖沙咀酒店4樓","男女","酒店","B類餐廳","280","base","意大利菜/多國菜/酒吧/酒店餐廳","","","11月24日 - 11月29日","往年慣例","","12月18日 - 12月20日","往年慣例","https://www.hk01.com/issue/828","https://www.hk01.com/issue/828","","","","九龍"
"22.296763727925","114.172938019037","行政會所 - 金域假日酒店 Executive Club Lounge - Holiday Inn Golden Mile","KOWLOON TONG SCHOOL (PRIMARY SECTION)","油尖區","/","尖沙咀彌敦道50號金域假日酒店B2室","男女","酒店","B類餐廳","281","base","多國菜/自助餐/酒店餐廳","","","11月24日 - 11月29日","往年慣例","","12月18日 - 12月20日","往年慣例","https://www.hk01.com/issue/828","https://www.hk01.com/issue/828","","","","九龍"
"22.3006561626383","114.173800349236","君怡閣中菜廳 Kimberley Chinese Restaurant","KOWLOON TONG SCHOOL (PRIMARY SECTION)","油尖區","/","尖沙咀金巴利道28號君怡酒店M樓","男女","酒店","B類餐廳","282","base","粵菜/(廣東)/海鮮/點心/中菜館/酒樓/酒店餐廳","","","11月24日 - 11月29日","往年慣例","","12月18日 - 12月20日","往年慣例","https://www.hk01.com/issue/828","https://www.hk01.com/issue/828","","","","九龍"
"22.299092","114.17946","荷花廳 Monet Room","KOWLOON TONG SCHOOL (PRIMARY SECTION)","油尖區","/","尖沙咀麼地道70號海景嘉福酒店B1層","男女","酒店","B類餐廳","283","base","西式/酒店餐廳","","","11月24日 - 11月29日","往年慣例","","12月18日 - 12月20日","往年慣例","https://www.hk01.com/issue/828","https://www.hk01.com/issue/828","","","","九龍"
"22.2952","114.172948","大堂酒吧 Lobby Lounge","KOWLOON TONG SCHOOL (PRIMARY SECTION)","油尖區","/","尖沙咀彌敦道20號香港喜來登酒店2樓","男女","酒店","B類餐廳","284","base","西式/酒吧/酒店餐廳/無翅餐廳","","","11月24日 - 11月29日","往年慣例","","12月18日 - 12月20日","往年慣例","https://www.hk01.com/issue/828","https://www.hk01.com/issue/828","","","","九龍"
"22.295155","114.171784","半島酒吧 The Bar","KOWLOON TONG SCHOOL (PRIMARY SECTION)","油尖區","/","尖沙咀梳士巴利道22號香港半島酒店1樓","男女","酒店","B類餐廳","285","base","西式/酒/酒吧/酒店餐廳","","","11月24日 - 11月29日","往年慣例","","12月18日 - 12月20日","往年慣例","https://www.hk01.com/issue/828","https://www.hk01.com/issue/828","","","","九龍"
"22.2958790121465","114.171893298626","Coffee Corner","KOWLOON TONG SCHOOL (PRIMARY SECTION)","油尖區","/","尖沙咀彌敦道19-21號九龍酒店大堂","男女","酒店","B類餐廳","286","base","西式/咖啡店/酒店餐廳","","","11月24日 - 11月29日","往年慣例","","12月18日 - 12月20日","往年慣例","https://www.hk01.com/issue/828","https://www.hk01.com/issue/828","","","","九龍"
"22.300068","114.172473","Room One - Sports Bar","KOWLOON TONG SCHOOL (PRIMARY SECTION)","油尖區","/","尖沙咀彌敦道118-130號美麗華廣場The Mira Hong Kong 地下大堂","男女","酒店","B類餐廳","287","base","西式/酒吧/酒店餐廳","","","11月24日 - 11月29日","往年慣例","","12月18日 - 12月20日","往年慣例","https://www.hk01.com/issue/828","https://www.hk01.com/issue/828","","","","九龍"
"22.299092","114.17946","藝萃廳 Picasso Room","KOWLOON TONG SCHOOL (PRIMARY SECTION)","油尖區","/","尖沙咀麼地道70號海景嘉福酒店B1層","男女","酒店","B類餐廳","288","base","西式/酒店餐廳","","","11月24日 - 11月29日","往年慣例","","12月18日 - 12月20日","往年慣例","https://www.hk01.com/issue/828","https://www.hk01.com/issue/828","","","","九龍"
"22.3010035853931","114.175015389919","皇悅小廚 Empire Kitchen","KOWLOON TONG SCHOOL (PRIMARY SECTION)","油尖區","/","尖沙咀金巴利道62號九龍尖沙咀皇悅酒店1樓","男女","酒店","B類餐廳","289","base","多國菜/酒店餐廳","","","11月24日 - 11月29日","往年慣例","","12月18日 - 12月20日","往年慣例","https://www.hk01.com/issue/828","https://www.hk01.com/issue/828","","","","九龍"
"22.30005","114.17223","The Ballroom, The Mira Hong Kong","KOWLOON TONG SCHOOL (PRIMARY SECTION)","油尖區","/","尖沙咀彌敦道118號The Mira Hong Kong 18樓","男女","酒店","D類餐廳","290","base","粵菜/(廣東)/自助餐/酒店餐廳","","","11月24日 - 11月29日","往年慣例","","12月18日 - 12月20日","往年慣例","https://www.hk01.com/issue/828","https://www.hk01.com/issue/828","","","","九龍"
"22.2997975284094","114.175484776497","Marigold Bar","KOWLOON TONG SCHOOL (PRIMARY SECTION)","油尖區","/","尖沙咀漆咸道南61-65號香港百樂酒店1樓","男女","酒店","B類餐廳","291","base","西式/酒吧/酒店餐廳","","","11月24日 - 11月29日","往年慣例","","12月18日 - 12月20日","往年慣例","https://www.hk01.com/issue/828","https://www.hk01.com/issue/828","","","","九龍"
"22.299092","114.17946","瀚林廳 Academy Rooms","KOWLOON TONG SCHOOL (PRIMARY SECTION)","油尖區","/","尖沙咀麼地道70號海景嘉福酒店1樓","男女","酒店","D類餐廳","292","base","西式/酒店餐廳","","","11月24日 - 11月29日","往年慣例","","12月18日 - 12月20日","往年慣例","https://www.hk01.com/issue/828","https://www.hk01.com/issue/828","","","","九龍"
"22.302677","114.169513","胡應湘宴會廳 Gordon Wu Hall","KOWLOON TONG SCHOOL (PRIMARY SECTION)","油尖區","/","尖沙咀柯士甸道8號龍堡國際UG層","男女","酒店","B類餐廳","293","base","西式/酒店餐廳","","","11月24日 - 11月29日","往年慣例","","12月18日 - 12月20日","往年慣例","https://www.hk01.com/issue/828","https://www.hk01.com/issue/828","","","","九龍"
"22.2978767494959","114.174787402153","甜 Sweet Corner","KOWLOON TONG SCHOOL (PRIMARY SECTION)","油尖區","/","尖沙咀赫德道8A號麗景酒店1樓","男女","酒店","B類餐廳","294","base","多國菜/麵包店/咖啡店/酒店餐廳","","","11月24日 - 11月29日","往年慣例","","12月18日 - 12月20日","往年慣例","https://www.hk01.com/issue/828","https://www.hk01.com/issue/828","","","","九龍"
"22.299427","114.179761","主席廳 Chairman’s Place","KOWLOON TONG SCHOOL (PRIMARY SECTION)","油尖區","/","尖沙咀麼地道72號千禧新世界香港酒店M樓","男女","酒店","B類餐廳","295","base","多國菜/酒店餐廳","","","11月24日 - 11月29日","往年慣例","","12月18日 - 12月20日","往年慣例","https://www.hk01.com/issue/828","https://www.hk01.com/issue/828","","","","九龍"
"22.3006660890148","114.173735976219","觀瀑廊 Cascade Lounge","KOWLOON TONG SCHOOL (PRIMARY SECTION)","油尖區","/","尖沙咀金巴利道28號君怡酒店大堂","男女","酒店","B類餐廳","296","base","西式/酒吧/酒店餐廳","","","11月24日 - 11月29日","往年慣例","","12月18日 - 12月20日","往年慣例","https://www.hk01.com/issue/828","https://www.hk01.com/issue/828","","","","九龍"
"22.2968823824026","114.172909855843","麗晶殿宴會廳 Crystal Ballroom","KOWLOON TONG SCHOOL (PRIMARY SECTION)","油尖區","/","尖沙咀彌敦道50號金域假日酒店3層地庫","男女","酒店","B類餐廳","297","base","西式/酒店餐廳","","","11月24日 - 11月29日","往年慣例","","12月18日 - 12月20日","往年慣例","https://www.hk01.com/issue/828","https://www.hk01.com/issue/828","","","","九龍"
"22.29846","114.177694","帝苑宴會廳 Banquet Rooms - The Royal Garden","KOWLOON TONG SCHOOL (PRIMARY SECTION)","油尖區","/","尖沙咀麼地道69號帝苑酒店","男女","酒店","B類餐廳","298","base","粵菜/(廣東)/海鮮/酒店餐廳","","","11月24日 - 11月29日","往年慣例","","12月18日 - 12月20日","往年慣例","https://www.hk01.com/issue/828","https://www.hk01.com/issue/828","","","","九龍"
"22.2957396","114.1716649","九龍酒店 The Kowloon Hotel","KOWLOON TONG SCHOOL (PRIMARY SECTION)","油尖區","/","尖沙咀彌敦道19-21號九龍酒店大堂","男女","酒店","B類餐廳","299","base","粵菜/(廣東)/唐餅/酒店餐廳","","","11月24日 - 11月29日","往年慣例","","12月18日 - 12月20日","往年慣例","https://www.hk01.com/issue/828","https://www.hk01.com/issue/828","","","","九龍"
"22.2970469","114.177023","九龍香格里拉大酒店宴會廳 Kowloon Shangri-La Hotel Ballroom","KOWLOON TONG SCHOOL (PRIMARY SECTION)","油尖區","/","尖沙咀麼地道64號九龍香格里拉大酒店閣樓","男女","酒店","B類餐廳","300","base","多國菜/酒店餐廳","","","11月24日 - 11月29日","往年慣例","","12月18日 - 12月20日","往年慣例","https://www.hk01.com/issue/828","https://www.hk01.com/issue/828","","","","九龍"
"22.2952251","114.1729686","喜嚐 Cake & Wine Shop","KOWLOON TONG SCHOOL (PRIMARY SECTION)","油尖區","/","尖沙咀彌敦道20號香港喜來登酒店2樓","男女","酒店","B類餐廳","301","base","西式/麵包店/酒店餐廳/無翅餐廳","","","11月24日 - 11月29日","往年慣例","","12月18日 - 12月20日","往年慣例","https://www.hk01.com/issue/828","https://www.hk01.com/issue/828","","","","九龍"
"22.315136","114.16998","孖啡 Double Cafe","KOWLOON TONG SCHOOL (PRIMARY SECTION)","旺角區","/","旺角彌敦道577號高氏大樓4樓","男女","酒店","B類餐廳","302","base","西式/甜品/糖水/咖啡店/樓上cafe","","","11月24日 - 11月29日","往年慣例","","12月18日 - 12月20日","往年慣例","https://www.hk01.com/issue/828","https://www.hk01.com/issue/828","","","","九龍"
"22.3183611","114.1717301","第三站 Station 3 Cafe","KOWLOON TONG SCHOOL (PRIMARY SECTION)","旺角區","/","旺角洗衣街39號金雞廣場25樓08-09室","男女","酒店","B類餐廳","303","base","意大利菜/西式/咖啡店/樓上cafe","","","11月24日 - 11月29日","往年慣例","","12月18日 - 12月20日","往年慣例","https://www.hk01.com/issue/828","https://www.hk01.com/issue/828","","","","九龍"
"22.318150305935","114.168140888214","The Place","KOWLOON TONG SCHOOL (PRIMARY SECTION)","旺角區","/","旺角上海街555號香港康得思酒店L樓層","男女","酒店","C類餐廳","304","base","多國菜/海鮮/自助餐/酒店餐廳/咪嘥嘢食店/無翅餐廳","","","11月24日 - 11月29日","往年慣例","","12月18日 - 12月20日","往年慣例","https://www.hk01.com/issue/828","https://www.hk01.com/issue/828","","","","九龍"
"22.32421443059","114.172968864441","花月庭 La Scala","KOWLOON TONG SCHOOL (PRIMARY SECTION)","旺角區","/","旺角太子道西193號帝京酒店2樓","男女","酒店","C類餐廳","305","base","多國菜/自助餐/酒店餐廳","","","11月24日 - 11月29日","往年慣例","","12月18日 - 12月20日","往年慣例","https://www.hk01.com/issue/828","https://www.hk01.com/issue/828","","","","九龍"
"22.3170858313371","114.173137843609","德福閣 Stanford Café","KOWLOON TONG SCHOOL (PRIMARY SECTION)","旺角區","/","旺角豉油街118號仕德福酒店閣樓","男女","酒店","未有相關資料","306","base","西式/自助餐/酒店餐廳","","","11月24日 - 11月29日","往年慣例","","12月18日 - 12月20日","往年慣例","https://www.hk01.com/issue/828","https://www.hk01.com/issue/828","","","","九龍"
"22.3181403808015","114.168135523796","明閣 Ming Court","KOWLOON TONG SCHOOL (PRIMARY SECTION)","旺角區","/","旺角上海街555號香港康得思酒店6樓","男女","酒店","D類餐廳","307","base","粵菜/(廣東)/燒臘/點心/中菜館/酒店餐廳/無翅餐廳","","","11月24日 - 11月29日","往年慣例","","12月18日 - 12月20日","往年慣例","https://www.hk01.com/issue/828","https://www.hk01.com/issue/828","","","","九龍"
"22.318175","114.168112","Alibi – Wine Dine Be Social","KOWLOON TONG SCHOOL (PRIMARY SECTION)","旺角區","/","旺角上海街555號香港康得思酒店5樓","男女","酒店","C類餐廳","308","base","西式/海鮮/酒吧/酒店餐廳/蠔吧/無翅餐廳","","","11月24日 - 11月29日","往年慣例","","12月18日 - 12月20日","往年慣例","https://www.hk01.com/issue/828","https://www.hk01.com/issue/828","","","","九龍"
"22.3242126","114.17312","Lion Rock","KOWLOON TONG SCHOOL (PRIMARY SECTION)","旺角區","/","旺角太子道西193號帝京酒店3樓","男女","酒店","B類餐廳","309","base","日本菜/廚師發辦/酒吧/酒店餐廳","","","11月24日 - 11月29日","往年慣例","","12月18日 - 12月20日","往年慣例","https://www.hk01.com/issue/828","https://www.hk01.com/issue/828","","","","九龍"
"22.3212876466354","114.166546314955","canton pot","KOWLOON TONG SCHOOL (PRIMARY SECTION)","旺角區","/","旺角廣東道1131號旺角薈賢居2樓","男女","酒店","D類餐廳","310","base","粵菜/(廣東)/火鍋/無肉餐單/酒店餐廳/咪嘥嘢食店/少鹽少糖食店","","","11月24日 - 11月29日","往年慣例","","12月18日 - 12月20日","往年慣例","https://www.hk01.com/issue/828","https://www.hk01.com/issue/828","","","","九龍"
"22.3232266158141","114.171987209648","帝京軒 Di King Heen","KOWLOON TONG SCHOOL (PRIMARY SECTION)","旺角區","/","旺角太子道西193號帝京酒店3樓","男女","酒店","D類餐廳","311","base","粵菜/(廣東)/海鮮/山珍海味/點心/酒樓/酒店餐廳","","","11月24日 - 11月29日","往年慣例","","12月18日 - 12月20日","往年慣例","https://www.hk01.com/issue/828","https://www.hk01.com/issue/828","","","","九龍"
"22.3195547052215","114.17566716671","棕櫚閣西餐廳 Palm Court Western Restaurant","KOWLOON TONG SCHOOL (PRIMARY SECTION)","旺角區","/","旺角窩打老道75號九龍維景酒店1樓","男女","酒店","B類餐廳","312","base","多國菜/自助餐/酒店餐廳","","","11月24日 - 11月29日","往年慣例","","12月18日 - 12月20日","往年慣例","https://www.hk01.com/issue/828","https://www.hk01.com/issue/828","","","","九龍"
"22.3240621483612","114.173129796982","帝京餅店 Cake Shop","KOWLOON TONG SCHOOL (PRIMARY SECTION)","旺角區","/","旺角太子道西193號帝京酒店大堂","男女","酒店","B類餐廳","313","base","西式/麵包店/酒店餐廳","","","11月24日 - 11月29日","往年慣例","","12月18日 - 12月20日","往年慣例","https://www.hk01.com/issue/828","https://www.hk01.com/issue/828","","","","九龍"
"22.318175","114.168112","The Garage Bar","KOWLOON TONG SCHOOL (PRIMARY SECTION)","旺角區","/","旺角上海街555號香港康得思酒店L樓層","男女","酒店","C類餐廳","314","base","多國菜/酒/三文治/酒吧/酒店餐廳/無翅餐廳","","","11月24日 - 11月29日","往年慣例","","12月18日 - 12月20日","往年慣例","https://www.hk01.com/issue/828","https://www.hk01.com/issue/828","","","","九龍"
"22.3195398176706","114.175677895546","唐宮中餐廳 House of Tang","KOWLOON TONG SCHOOL (PRIMARY SECTION)","旺角區","/","旺角窩打老道75號九龍維景酒店2樓","男女","酒店","B類餐廳","315","base","粵菜/(廣東)/點心/酒樓/酒店餐廳","","","11月24日 - 11月29日","往年慣例","","12月18日 - 12月20日","往年慣例","https://www.hk01.com/issue/828","https://www.hk01.com/issue/828","","","","九龍"
"22.3195497427047","114.17574763298","九龍維景酒店餅店 Cake Shop","KOWLOON TONG SCHOOL (PRIMARY SECTION)","旺角區","/","旺角窩打老道75號九龍維景酒店地下","男女","酒店","B類餐廳","316","base","西式/麵包店/酒店餐廳","","","11月24日 - 11月29日","往年慣例","","12月18日 - 12月20日","往年慣例","https://www.hk01.com/issue/828","https://www.hk01.com/issue/828","","","","九龍"
